ACCESSION_NUMBER,FILING_DATE,PERIOD_OF_REPORT,DOCUMENT_TYPE,ISSUERTRADINGSYMBOL,ISSUERNAME,RPTOWNER_RELATIONSHIP,RPTOWNER_TITLE,RPTOWNER_STATE,RPTOWNER_CITY,RPTOWNER_ZIPCODE,TRANS_PRICEPERSHARE,SHRS_OWND_FOLWNG_TRANS,DIRECT_INDIRECT_OWNERSHIP,TRANS_FORM_TYPE,SECURITY_TITLE,TRANS_SHARES,TRANS_ACQUIRED_DISP_CD,LATITUDE,LONGITUDE,QUARTER
0001045810-24-000226,2024-07-17,15-JUL-2024,4,NVDA,NVIDIA CORP,"Director,Officer",President and CEO,CA,SANTA CLARA,95051,127.78,78787685.0,D,4.0,Common Stock,9695.0,D,37.3483,-121.98444,2024Q3
0001127602-24-024103,2024-09-17,16-SEP-2024,4,SBUX,STARBUCKS CORP,Officer,"evp, chief partner officer",WA,SEATTLE,98134,96.31,44851.75,D,4.0,Common Stock,1525.0,D,47.57691,-122.33686,2024Q3
0001104659-25-002560,2025-01-10,07-JAN-2025,4,ENFN,"Enfusion, Inc.","Director,Officer,TenPercentOwner",Chief Executive Officer,IL,CHICAGO,60603,10.13,526702.0,D,4.0,Class A Common Stock,2771.0,D,41.88018,-87.6274,2025Q1
0000950170-24-039324,2024-04-01,28-MAR-2024,4,WKC,WORLD KINECT CORP,"Director,Officer","Chairman, CEO and President",FL,MIAMI,33178,26.45,1009958.0,D,4.0,Common Stock,11180.0,D,25.83578,-80.4213,2024Q2
0001127602-24-024572,2024-09-30,27-SEP-2024,4,BL,"BLACKLINE, INC.",Officer,CHIEF FINANCIAL OFFICER,CA,WOODLAND HILLS,91367,14.0,229459.0,D,4.0,Common Stock,2615.0,A,34.17708,-118.61518,2024Q3
0001035267-24-000122,2024-03-11,08-MAR-2024,4,ISRG,INTUITIVE SURGICAL INC,Officer,EVP & Chief Strategy & Corp Op,CA,SUNNYVALE,94086,393.83,5507.0,D,4.0,Common Stock,2749.0,D,37.37164,-122.02316,2024Q1
0001437749-24-006521,2024-03-04,29-FEB-2024,4,LMAT,LEMAITRE VASCULAR INC,"Director,Officer,TenPercentOwner",Chairman and CEO,MA,BURLINGTON,1803,67.95,2191326.0,D,4.0,Common Stock,32800.0,D,42.5028,-71.20147,2024Q1
0001225208-24-003720,2024-03-05,01-MAR-2024,4,PEG,PUBLIC SERVICE ENTERPRISE GROUP INC,Officer,President and COO - PSE&G,NJ,NEWARK,7102,62.0,69459.48,D,4.0,Common Stock,1973.0,D,40.73576,-74.17343,2024Q1
0001415889-25-001709,2025-01-17,15-JAN-2025,4,IOT,Samsara Inc.,"Director,Officer,TenPercentOwner",CHIEF EXECUTVE OFFICER,CA,SAN FRANCISCO,94107,45.95,50435.0,I,4.0,Class A Common Stock,19461.0,D,37.76473,-122.39508,2025Q1
0001415889-25-001327,2025-01-10,08-JAN-2025,4,TXRH,"Texas Roadhouse, Inc.",Officer,CHIEF COMMUNICATIONS OFFICER,KY,LOUISVILLE,40205,181.27,31300.0,D,4.0,Common Stock,994.0,D,38.22313,-85.68275,2025Q1
0000950170-25-022587,2025-02-18,13-FEB-2025,4,WCC,WESCO INTERNATIONAL INC,Officer,"Chairman, President & CEO",PA,PITTSBURGH,15219,193.67,468611.63,D,4.0,Common Stock,12707.0,D,40.44304,-79.98443,2025Q1
0001668397-24-000027,2024-02-27,23-FEB-2024,4,MEDP,"Medpace Holdings, Inc.","Director,Officer,TenPercentOwner",CEO,OH,CINCINNATI,45227,402.38,5233019.0,I,4.0,Common Stock,56928.0,D,39.15403,-84.38524,2024Q1
0001373670-25-000019,2025-03-05,03-MAR-2025,4,GRBK,"Green Brick Partners, Inc.","Director,Officer",Chief Executive Officer,TX,PLANO,75024,59.73,1637322.0,D,4.0,Common Stock,21677.0,D,33.07712,-96.80826,2025Q1
0001415889-24-016939,2024-06-14,12-JUN-2024,4,ACLX,"Arcellx, Inc.",Officer,CHIEF MEDICAL OFFICER,CA,REDWOOD CITY,94065,55.13,9360.0,D,4.0,Common Stock,19918.0,D,37.53504,-122.24683,2024Q2
0001127602-25-004144,2025-02-11,09-FEB-2025,4,UMBF,UMB FINANCIAL CORP,Officer,Chief Administrative Officer,MO,KANSAS CITY,64106,114.11,32373.13,D,4.0,Common Stock,207.0,D,39.10526,-94.57013,2025Q1
0001587523-25-000012,2025-02-20,18-FEB-2025,4,KN,Knowles Corp,Officer,Senior Vice President & COO,IL,ITASCA,60143,18.34,162405.0,D,4.0,Common Stock,18921.0,A,41.97351,-88.02071,2025Q1
0000002488-24-000094,2024-06-07,05-JUN-2024,4,AMD,ADVANCED MICRO DEVICES INC,"Director,Officer","Chair, President & CEO",CA,SANTA CLARA,95054,165.3,3045995.0,D,4.0,Common Stock,59453.0,D,37.39308,-121.96483,2024Q2
0001127602-25-004044,2025-02-11,10-FEB-2025,4,YUM,YUM BRANDS INC,Officer,CEO - Pizza Hut,KY,LOUISVILLE,40213,148.15,19021.48,D,4.0,Common Stock,439.0,D,38.177,-85.71571,2025Q1
0001225208-24-005763,2024-05-07,03-MAY-2024,4,IFF,INTERNATIONAL FLAVORS & FRAGRANCES INC,Officer,"President, Nourish",NY,NEW YORK,10019,86.64,8238.0,D,4.0,Common Stock,3300.0,D,40.76586,-73.9853,2024Q2
0001371285-25-000108,2025-03-24,20-MAR-2025,4,TRUP,"TRUPANION, INC.","Director,Officer",CEO,WA,SEATTLE,98108,8.93,122784.0,D,4.0,Common Stock,4000.0,A,47.54113,-122.3126,2025Q1
0000950103-24-012635,2024-08-26,22-AUG-2024,4,META,"Meta Platforms, Inc.","Director,Officer,TenPercentOwner",COB and CEO,CA,MENLO PARK,94025,542.6,20207.0,I,4.0,Class A Common Stock,370.0,D,37.45087,-122.1829,2024Q3
0001654954-24-010951,2024-08-20,20-AUG-2024,4,PTC,PTC INC.,Officer,Chief Accounting Officer,MA,BOSTON,2210,176.08,154.0,D,4.0,Common Stock,590.0,D,42.34815,-71.03942,2024Q3
0001493152-25-001298,2025-01-08,06-JAN-2025,4,GLSI,"Greenwich LifeSciences, Inc.","Director,Officer,TenPercentOwner",CEO and CFO,TX,STAFFORD,77477,13.75,5550002.0,D,4.0,Common Stock,1800.0,A,29.62625,-95.56718,2025Q1
0001209191-24-002889,2024-02-06,05-FEB-2024,4,BPRN,"Princeton Bancorp, Inc.",Officer,Chief Lending Officer,NJ,PRINCETON,8540,33.73,11192.0,D,4.0,Common Stock,230.0,D,40.36423,-74.65661,2024Q1
0001225208-24-003638,2024-03-05,02-MAR-2024,4,USB,US BANCORP \DE\,Officer,Vice Chair,MN,MINNEAPOLIS,55402,41.42,240685.0,D,4.0,"Common Stock, $0.01 par value",4259.0,D,44.97608,-93.27119,2024Q1
0001127602-24-020813,2024-07-22,22-JUL-2024,4,SLB,SCHLUMBERGER LIMITED/NV,Officer,EVP & CFO,TX,HOUSTON,77056,49.94,203076.0,D,4.0,"Common Stock, $0.01 Par Value Per Share",50048.0,D,29.74849,-95.46806,2024Q3
0001127602-24-026678,2024-11-07,06-NOV-2024,4,CBU,"COMMUNITY FINANCIAL SYSTEM, INC.",Officer,"SVP, Chief Accounting Officer",NY,DEWITT,13214,62.2,4850.6,D,4.0,Common Stock,1841.0,D,43.03865,-76.0741,2024Q4
0001321655-25-000028,2025-02-24,20-FEB-2025,4,PLTR,Palantir Technologies Inc.,Officer,See Remarks,CO,DENVER,80202,97.46,703485.0,D,4.0,Class A Common Stock,607.0,D,39.75156,-104.99768,2025Q1
0000002488-25-000034,2025-03-18,14-MAR-2025,4,AMD,ADVANCED MICRO DEVICES INC,Officer,Chief Technology Officer & EVP,CA,SANTA CLARA,95054,19.1,1731210.0,D,4.0,Common Stock,17500.0,A,37.39308,-121.96483,2025Q1
0001127602-24-003831,2024-02-07,05-FEB-2024,4,WFC,WELLS FARGO & COMPANY/MN,Officer,Sr. Executive Vice President,NY,NEW YORK,10001,48.7,23762.58,D,4.0,"Common Stock, $1 2/3 Par Value",3978.46,D,40.75064,-73.99728,2024Q1
0001593968-25-000108,2025-01-21,21-JAN-2025,4,AEHR,AEHR TEST SYSTEMS,Officer,VP Contactor Business Unit,CA,FREMONT,94539,13.22,22992.0,D,4.0,Common Stock,405.0,D,37.51635,-121.9119,2025Q1
0001758554-24-000061,2024-07-03,01-JUL-2024,4,SMCI,"Super Micro Computer, Inc.",Officer,"SVP, Chief Financial Officer",CA,SAN JOSE,95131,812.32,14281.0,D,4.0,Common Stock,476.0,D,37.38729,-121.89793,2024Q3
0000950170-25-030269,2025-02-28,27-FEB-2025,4,SERV,Serve Robotics Inc. /DE/,Officer,Chief Hardware & Mftg Offcr,CA,REDWOOD CITY,94063,9.21,149858.0,D,4.0,Common Stock,660.0,D,37.49367,-122.20823,2025Q1
0001170010-24-000126,2024-07-30,29-JUL-2024,4,KMX,CARMAX INC,Officer,"VP, Controller & PAO",VA,RICHMOND,23238,63.04,21448.0,D,4.0,Common Stock,12000.0,A,37.59595,-77.64138,2024Q3
0000028412-24-000205,2024-02-28,26-FEB-2024,4,CMA,COMERICA INC /NEW/,Officer,Senior EVP and CFO,TX,DALLAS,75201,48.97,48076.0,D,4.0,Common Stock,6098.0,D,32.78826,-96.79953,2024Q1
0000950103-25-001664,2025-02-05,05-FEB-2025,4,META,"Meta Platforms, Inc.","Director,Officer,TenPercentOwner",COB and CEO,CA,MENLO PARK,94025,708.9,175855.0,I,4.0,Class A Common Stock,292.0,D,37.45087,-122.1829,2025Q1
0000950170-24-112558,2024-10-03,01-OCT-2024,4,HUBS,HUBSPOT INC,"Director,Officer",Chief Executive Officer & Pres,MA,CAMBRIDGE,2141,526.66,64175.0,D,4.0,Common Stock,3028.0,D,42.37041,-71.08218,2024Q4
0001596532-24-000056,2024-02-14,12-FEB-2024,4,ANET,"Arista Networks, Inc.","Director,Officer",CTO and SVP Software Eng.,CA,SANTA CLARA,95054,283.49,283828.0,I,4.0,Common Stock,2509.0,D,37.39308,-121.96483,2024Q1
0000933136-25-000023,2025-03-04,01-MAR-2025,4,COOP,Mr. Cooper Group Inc.,"Director,Officer",Chief Executive Officer,TX,COPPELL,75019,112.24,698821.0,I,4.0,Common Stock,30000.0,D,32.96183,-96.984,2025Q1
0001805124-24-000073,2024-05-10,08-MAY-0024,4,DOOR,MASONITE INTERNATIONAL CORP,Officer,"President, Global Residential",FL,TAMPA,33605,132.62,14437.0,D,4.0,Common Shares,1851.0,D,27.95121,-82.42924,2024Q2
0001467373-24-000309,2024-11-06,05-NOV-2024,4,ACN,Accenture plc,"Director,Officer",Chair and CEO,IL,CHICAGO,60661,344.81,12299.0,D,4.0,Class A ordinary shares,111.0,A,41.88291,-87.64409,2024Q4
0001127602-24-020307,2024-07-11,09-JUL-2024,4,XNCR,Xencor Inc,Officer,SR. VICE PRESIDENT & CSO,CA,PASADENA,91107,18.32,192319.0,D,4.0,Common Stock,36329.0,D,34.15919,-118.08688,2024Q3
0001493152-24-010165,2024-03-15,14-MAR-2024,4,SHOO,"STEVEN MADDEN, LTD.",Officer,Chief Financial Officer,NY,LONG ISLAND CITY,11104,41.66,68785.0,D,4.0,"Common Stock, par value $0.0001 per share",7246.0,D,40.74484,-73.92049,2024Q1
0001127602-25-000928,2025-01-07,06-JAN-2025,4,MG,"Mistras Group, Inc.",Officer,"EVP, General Counsel",NJ,PRINCETON JUNCTION,8550,9.06,81294.0,D,4.0,Common Stock,3149.0,D,40.28125,-74.61926,2025Q1
0001640147-24-000282,2024-12-26,24-DEC-2024,4,SNOW,Snowflake Inc.,Officer,Chief Accounting Officer,MT,BOZEMAN,59715,163.17,44760.0,D,4.0,Class A Common Stock,1508.0,D,45.6928,-110.9065,2024Q4
0001225208-24-008224,2024-08-26,23-AUG-2024,4,HOV,HOVNANIAN ENTERPRISES INC,"Director,Officer,TenPercentOwner","Chairman of Bd., Pres. & CEO",NJ,MATAWAN,7747,233.7,31291.0,D,4.0,Class A Common Stock,692.0,D,40.41312,-74.2521,2024Q3
0001690820-24-000194,2024-05-03,01-MAY-2024,4,CVNA,CARVANA CO.,Officer,"President, Special Projects",AZ,TEMPE,85281,116.37,186926.0,D,4.0,Class A Common Stock,400.0,D,33.42805,-111.93157,2024Q2
0001584509-24-000006,2024-01-09,07-JAN-2024,4,ARMK,Aramark,Officer,Executive VP and CFO,PA,PHILADELPHIA,19103,28.22,116728.82,D,4.0,Common Stock,1208.0,D,39.95303,-75.17386,2024Q1
0000929638-25-000824,2025-02-20,18-FEB-2025,4,FRHC,Freedom Holding Corp.,Officer,Pres & CEO - Prime Executions,NY,NEW YORK,10005,156.3,63000.0,D,4.0,"Common Stock, par value $0.001 per share",7000.0,D,40.70614,-74.00862,2025Q1
0001415889-24-027270,2024-11-19,15-NOV-2024,4,WGS,GeneDx Holdings Corp.,"Director,Officer",Chief Executive Officer,CT,STAMFORD,6902,66.6,81518.0,D,4.0,Class A Common Stock,800.0,D,41.05949,-73.54751,2024Q4
0001607939-24-000190,2024-10-31,29-OCT-2024,4,UDMY,"Udemy, Inc.","Director,Officer",President and CEO,CA,SAN FRANCISCO,94107,8.5,1203727.0,D,4.0,Common Stock,10000.0,D,37.76473,-122.39508,2024Q4
0001576280-24-000024,2024-01-16,16-JAN-2024,4,GH,"Guardant Health, Inc.",Officer,Chief Technology Officer,CA,PALO ALTO,94304,8.8,35305.0,D,4.0,COMMON STOCK,6626.0,A,37.39744,-122.16699,2024Q1
0001127602-25-007931,2025-03-04,28-FEB-2025,4,TMO,THERMO FISHER SCIENTIFIC INC.,Officer,Executive Vice President,MA,WALTHAM,2451,528.96,15847.85,D,4.0,Common Stock,208.39,D,42.39859,-71.2573,2025Q1
0001628280-25-006861,2025-02-20,18-FEB-2025,4,NOC,NORTHROP GRUMMAN CORP /DE/,Officer,CVP & Pres Aeronautics Systems,VA,FALLS CHURCH,22042,441.36,7467.6,D,4.0,Common Stock,2924.0,D,38.86463,-77.19406,2025Q1
0000950170-24-039627,2024-04-01,28-MAR-2024,4,SNAP,Snap Inc,Officer,General Counsel,CA,SANTA MONICA,90405,11.53,474812.0,I,4.0,Class A Common Stock,18000.0,D,34.01208,-118.4679,2024Q2
0001723596-24-000195,2024-05-03,01-MAY-2024,4,CLBK,"Columbia Financial, Inc.",Officer,EVP & CIO,NJ,FAIR LAWN,7410,14.73,1531.0,D,4.0,Common Stock,332.0,D,40.93587,-74.11771,2024Q2
0001835632-24-000181,2024-10-17,15-OCT-2024,4,MRVL,"Marvell Technology, Inc.",Officer,"President, Products & Tech",CA,SANTA CLARA,95054,79.41,700403.0,D,4.0,Common Shares,1613.0,D,37.39308,-121.96483,2024Q4
0000950170-25-034001,2025-03-05,03-MAR-2025,4,VTRS,Viatris Inc,Officer,Chief Legal Officer,PA,CANONSBURG,15317,9.37,88905.0,D,4.0,Common Stock,1001.0,D,40.27105,-80.16535,2025Q1
0000905148-24-000078,2024-01-04,02-JAN-2024,4,WLFC,WILLIS LEASE FINANCE CORP,"Director,Officer,TenPercentOwner",Executive Chairman,FL,COCONUT CREEK,33073,47.19,930740.0,D,4.0,Common Stock,183.0,D,26.29818,-80.1827,2024Q1
0000078890-25-000048,2025-02-21,19-FEB-2025,4,BCO,BRINKS CO,Officer,EVP,TX,COPPELL,75019,94.59,42061.0,D,4.0,Common Stock,13893.0,D,32.96183,-96.984,2025Q1
0000950170-24-008818,2024-01-30,29-JAN-2024,4,MSTR,MICROSTRATEGY Inc,"Director,Officer,TenPercentOwner",Executive Chairman,VA,TYSONS CORNER,22182,512.22,1014.0,D,4.0,Class A Common Stock,300.0,D,38.93611,-77.2736,2024Q1
0001839839-24-000121,2024-03-22,21-MAR-2024,4,JBI,"Janus International Group, Inc.",Officer,Executive Vice President,GA,TEMPLE,30179,15.0,19909.0,D,4.0,Common Stock,770.0,D,33.78088,-85.01961,2024Q1
0001562180-24-000974,2024-02-02,01-FEB-2024,4,MBIN,Merchants Bancorp,Officer,CEO of Merchants Capital,IN,CARMEL,46032,42.17,82593.0,D,4.0,Common Stock,3692.0,D,39.96535,-86.17104,2024Q1
0001609711-24-000011,2024-02-05,01-FEB-2024,4,GDDY,GoDaddy Inc.,Officer,Chief Operating Officer,AZ,TEMPE,85284,107.2,149716.0,D,4.0,Class A Common Stock,4000.0,D,33.33719,-111.93443,2024Q1
0001662857-25-000002,2025-03-18,15-MAR-2025,4,EPAM,"EPAM Systems, Inc.",Officer,"SVP, Chief Marketing Officer",PA,NEWTOWN,18940,182.73,8316.0,D,4.0,EPAM Common Stock,82.0,D,40.26349,-74.9483,2025Q1
0001437749-25-009889,2025-03-28,28-MAR-2025,4,HSTM,HEALTHSTREAM INC,Officer,Chief Technology Officer,TN,NASHVILLE,37203,31.9,32353.0,D,4.0,Common Stock Holding,1597.0,D,36.14937,-86.78986,2025Q1
0001730168-24-000115,2024-10-11,09-OCT-2024,4,AVGO,Broadcom Inc.,Officer,Chief Legal & Corp Affairs Ofc,CA,PALO ALTO,94304,182.88,380560.0,D,4.0,"Common Stock, $0.001 par value",18900.0,D,37.39744,-122.16699,2024Q4
0001022079-25-000085,2025-03-05,04-MAR-2025,4,DGX,QUEST DIAGNOSTICS INC,Officer,Executive Vice President & CFO,NJ,SECAUCUS,7094,173.74,34061.0,D,4.0,Common Stock,13884.0,A,40.78109,-74.06588,2025Q1
0001062993-24-003711,2024-02-20,15-FEB-2024,4,MORN,"Morningstar, Inc.","Director,Officer,TenPercentOwner",Executive Chairman,IL,CHICAGO,60602,279.79,10892854.0,D,4.0,Common Stock,200.0,D,41.88304,-87.62906,2024Q1
0001562180-25-001530,2025-02-24,21-FEB-2025,4,TEAM,Atlassian Corp,"Director,Officer,TenPercentOwner","CEO, Co-Founder",CA,SAN FRANCISCO,94104,293.65,213942.0,I,4.0,Class A Common Stock,184.0,D,37.79144,-122.40211,2025Q1
0001127602-25-005438,2025-02-19,18-FEB-2025,4,MAGN,Magnera Corp,Officer,"EVP, Chief HR Officer",NC,CHARLOTTE,28269,22.49,6549.0,D,4.0,"Common Stock, Par Value $.01",188.0,A,35.33747,-80.8026,2025Q1
0001104659-24-027581,2024-02-26,22-FEB-2024,4,SUPN,"SUPERNUS PHARMACEUTICALS, INC.",Officer,"SVP, Chief Medical Officer",MD,ROCKVILLE,20850,27.94,3958.0,D,4.0,Common Stock,303.0,D,39.0908,-77.1809,2024Q1
0001781755-25-000020,2025-02-28,27-FEB-2025,4,BWIN,"Baldwin Insurance Group, Inc.",Officer,General Counsel,FL,TAMPA,33607,41.54,8813.0,D,4.0,Class A Common Stock,12293.0,D,27.96677,-82.51408,2025Q1
0000950142-25-000526,2025-02-24,20-FEB-2025,4,OEC,Orion S.A.,Officer,Chief Financial Officer,TX,SPRING,77389,15.15,95154.0,D,4.0,"Common Shares, no par value",6701.0,D,30.11509,-95.50752,2025Q1
0000950103-24-004241,2024-03-25,22-MAR-2024,4,META,"Meta Platforms, Inc.","Director,Officer,TenPercentOwner",COB and CEO,CA,MENLO PARK,94025,505.84,654196.0,I,4.0,Class A Common Stock,10686.0,D,37.45087,-122.1829,2024Q1
0001415889-24-004264,2024-02-16,14-FEB-2024,4,LYFT,"Lyft, Inc.",Officer,PRESIDENT,CA,SAN FRANCISCO,94107,15.02,633950.0,D,4.0,Class A Common Stock,5670.0,D,37.76473,-122.39508,2024Q1
0001015328-25-000061,2025-01-29,27-JAN-2025,4,WTFC,WINTRUST FINANCIAL CORP,Officer,EXECUTIVE VICE PRESIDENT,IL,ROSEMONT,60018,131.46,15726.0,D,4.0,Common Stock,186.0,D,41.99629,-87.89846,2025Q1
0001963160-24-000002,2024-03-11,08-MAR-2024,4,ATRI,ATRION CORP,Officer,Officer / CFO,TX,ALLEN,75002,440.8,118.0,D,4.0,common stock,45.0,D,33.08946,-96.60639,2024Q1
0001591698-24-000184,2024-08-19,15-AUG-2024,4,PCTY,Paylocity Holding Corp,Officer,Chief Financial Officer,IL,SCHAUMBURG,60173,151.43,52684.0,D,4.0,"Common Stock, par value $0.001",755.0,D,42.05287,-88.0526,2024Q3
0001415889-24-029770,2024-12-18,16-DEC-2024,4,WGS,GeneDx Holdings Corp.,Officer,CHIEF FINANCIAL OFFICER,CT,STAMFORD,6902,76.75,28200.0,D,4.0,Class A Common Stock,3728.0,D,41.05949,-73.54751,2024Q4
0001628280-24-048667,2024-11-20,18-NOV-2024,4,ROOT,"Root, Inc.",Officer,Chief Administrative Officer,OH,COLUMBUS,43215,100.0,60571.0,D,4.0,Class A Common Stock,4000.0,D,39.96633,-83.01262,2024Q4
0000833640-24-000022,2024-02-08,07-FEB-2024,4,POWI,POWER INTEGRATIONS INC,Officer,VP Corporate Development,CA,SAN JOSE,95138,74.04,130153.0,D,4.0,Common Stock,882.0,D,37.2462,-121.73287,2024Q1
0001307748-25-000015,2025-01-27,24-JAN-2025,4,IVT,InvenTrust Properties Corp.,"Director,Officer",President & C.E.O.,IL,DOWNERS GROVE,60515,30.13,106858.0,D,4.0,Common Stock,62.0,D,41.80991,-88.0247,2025Q1
0000078890-25-000072,2025-03-04,01-MAR-2025,4,BCO,BRINKS CO,Officer,Controller,VA,RICHMOND,23226,88.51,10830.0,D,4.0,Common Stock,227.0,D,37.57774,-77.5198,2025Q1
0001671933-24-000078,2024-07-02,28-JUN-2024,4,TTD,"Trade Desk, Inc.",Officer,Chief Legal Officer,CA,VENTURA,93001,98.17,193783.0,D,4.0,Class A Common Stock,36236.0,D,34.35321,-119.31868,2024Q3
0001628280-24-004056,2024-02-09,08-FEB-2024,4,CW,CURTISS WRIGHT CORP,Officer,Vice President and COO,NC,DAVIDSON,28036,225.04,26613.0,D,4.0,Common Stock,2832.0,D,35.48586,-80.79375,2024Q1
0000950103-24-000542,2024-01-10,10-JAN-2024,4,META,"Meta Platforms, Inc.","Director,Officer,TenPercentOwner",COB and CEO,CA,MENLO PARK,94025,371.08,1549.0,I,4.0,Class A Common Stock,2218.0,D,37.45087,-122.1829,2024Q1
0000950103-24-017463,2024-12-09,06-DEC-2024,4,META,"Meta Platforms, Inc.","Director,Officer,TenPercentOwner",COB and CEO,CA,MENLO PARK,94025,628.06,607240.0,I,4.0,Class A Common Stock,121.0,D,37.45087,-122.1829,2024Q4
0001415889-25-001709,2025-01-17,15-JAN-2025,4,IOT,Samsara Inc.,"Director,Officer,TenPercentOwner",CHIEF EXECUTVE OFFICER,CA,SAN FRANCISCO,94107,45.82,69731.0,I,4.0,Class A Common Stock,4605.0,D,37.76473,-122.39508,2025Q1
0000799292-24-000116,2024-11-13,08-NOV-2024,4,MHO,"M/I HOMES, INC.","Director,Officer",Ex. Vice President and CFO,OH,COLUMBUS,43219,166.17,35808.0,D,4.0,Common Shares,203.0,D,40.00774,-82.92233,2024Q4
0001127602-24-006439,2024-02-23,21-FEB-2024,4,PGR,PROGRESSIVE CORP/OH/,Officer,Personal Lines President,OH,MAYFIELD VILLAGE,44143,190.26,15188.83,D,4.0,Common,29675.0,D,41.55358,-81.47513,2024Q1
0001771340-25-000001,2025-01-08,06-JAN-2025,4,TSLA,"Tesla, Inc.",Officer,Chief Financial Officer,TX,AUSTIN,78725,416.81,111064.75,D,4.0,Common Stock,600.0,D,30.23554,-97.60859,2025Q1
0001117297-24-000054,2024-11-13,10-NOV-2024,4,QNST,"QUINSTREET, INC","Director,Officer",Chief Executive Officer,CA,FOSTER CITY,94404,22.5,719698.0,D,4.0,Common Stock,6019.0,D,37.5562,-122.26905,2024Q4
0001562180-24-000548,2024-01-18,16-JAN-2024,4,UBER,"Uber Technologies, Inc",Officer,See Remarks,CA,SAN FRANCISCO,94158,63.65,167322.0,D,4.0,Common Stock,622.0,D,37.77116,-122.39153,2024Q1
0000923120-24-000078,2024-10-28,24-OCT-2024,4,GBX,GREENBRIER COMPANIES INC,Officer,"SVP, Operations, Maint Svcs.",OR,LAKE OSWEGO,97035,58.0,33775.93,D,4.0,Common Stock,1976.0,D,45.41291,-122.72616,2024Q4
0001127602-24-001768,2024-01-19,17-JAN-2024,4,SLB,SCHLUMBERGER LIMITED/NV,Officer,Pres Digital & Integration,TX,HOUSTON,77056,48.26,55130.0,D,4.0,"Common Stock, $0.01 Par Value Per Share",808.0,D,29.74849,-95.46806,2024Q1
0000874501-25-000046,2025-03-10,06-MAR-2025,4,AMBC,AMBAC FINANCIAL GROUP INC,"Director,Officer",Chief Executive Officer,NY,NEW YORK,10007,9.16,527416.0,D,4.0,Common Stock,10809.0,D,40.71387,-74.00792,2025Q1
0001127602-24-003052,2024-02-02,31-JAN-2024,4,T,AT&T INC.,Officer,Sr. Exec VP and CFO,TX,DALLAS,75202,17.69,203311.92,I,4.0,Common Stock,5348.91,A,32.77843,-96.8037,2024Q1
0000950170-24-099532,2024-08-21,01-AUG-2024,4/A,CRVL,CORVEL CORP,Officer,Chief Financial Officer,TX,FORT WORTH,75109,316.26,7843.0,D,4.0,Common Stock,144.0,D,32.04246,-96.35622,2024Q3
0001127602-24-021641,2024-08-05,02-AUG-2024,4,UMBF,UMB FINANCIAL CORP,"Director,Officer",Chairman and CEO,MO,KANSAS CITY,64106,93.88,261133.22,D,4.0,Common Stock,86.0,D,39.10526,-94.57013,2024Q3
0001415889-24-011296,2024-04-22,18-APR-2024,4,WINA,WINMARK CORP,"Director,Officer",CHAIR AND CEO,MN,MINNEAPOLIS,55441,164.84,111500.0,D,4.0,Common Stock,606.0,A,45.00475,-93.42845,2024Q2
0001766478-24-000091,2024-09-04,03-SEP-2024,4,AOMR,"Angel Oak Mortgage REIT, Inc.",Officer,CFO & Treasurer,GA,ATLANTA,30326,11.17,98712.0,D,4.0,Common Stock,3084.0,D,33.84957,-84.36342,2024Q3
0000950170-24-019551,2024-02-23,22-FEB-2024,4,NOV,NOV Inc.,Officer,See Remarks,TX,HOUSTON,77042,17.41,92421.0,D,4.0,Common Stock,1827.0,D,29.74125,-95.56015,2024Q1
0001437749-24-003872,2024-02-13,09-FEB-2024,4,FXNC,FIRST NATIONAL CORP /VA/,"Director,Officer",President & CEO,VA,STRASBURG,22657,19.58,66696.95,D,4.0,"Common Stock, $1.25 par value",388.0,D,39.00155,-78.36755,2024Q1
0000916365-24-000031,2024-02-13,09-FEB-2024,4,TSCO,TRACTOR SUPPLY CO /DE/,Officer,EVP  Chief Merchandise Officer,TN,BRENTWOOD,37027,232.75,13569.7,D,4.0,Common stock,122.77,D,35.99978,-86.78439,2024Q1
0001225208-25-002396,2025-02-25,21-FEB-2025,4,MAR,MARRIOTT INTERNATIONAL INC /MD/,Officer,"Group Pres., US and Canada",MD,BETHESDA,20814,285.23,43561.0,D,4.0,Class A Common Stock,8033.0,D,39.00506,-77.10295,2025Q1
0001562180-24-008097,2024-12-03,01-DEC-2024,4,HCAT,"Health Catalyst, Inc.",Officer,Chief Commercial Officer,UT,SOUTH JORDAN,84095,8.97,244450.0,D,4.0,Common Stock,11431.0,D,40.55856,-111.94165,2024Q4
0001628280-24-015255,2024-04-08,04-APR-2024,4,CRDO,Credo Technology Group Holding Ltd,"Director,Officer",Pres & Chief Executive Officer,CA,SAN JOSE,95134,21.72,3007500.0,I,4.0,Ordinary Shares,15000.0,D,37.43003,-121.94528,2024Q2
0001127602-25-001112,2025-01-13,10-JAN-2025,4,AIR,AAR CORP,"Director,Officer","Chairman, President & CEO",IL,WOOD DALE,60191,18.94,381347.0,D,4.0,Common Stock,14667.0,A,41.9647,-87.98087,2025Q1
0001127602-24-008067,2024-03-04,29-FEB-2024,4,EBTC,ENTERPRISE BANCORP INC /MA/,Officer,EVP - Principal Subsidiary,MA,LOWELL,1852,20.29,65264.0,D,4.0,Common Stock,1203.0,A,42.63231,-71.29538,2024Q1
0001877322-24-000145,2024-10-31,29-OCT-2024,4,ESAB,ESAB Corp,Officer,Chief Financial Officer,MD,NORTH BETHESDA,20852,125.0,11433.0,D,4.0,"Common stock, par value $0.001",5044.0,D,39.05134,-77.12507,2024Q4
0001104659-24-125982,2024-12-05,03-DEC-2024,4,WRBY,Warby Parker Inc.,"Director,Officer",Co-Chief Executive Officer,NY,NEW YORK,10013,22.61,12177.0,D,4.0,Class A Common Stock,36163.0,D,40.72001,-74.00472,2024Q4
0001005229-24-000112,2024-05-17,16-MAY-2024,4,CMCO,COLUMBUS MCKINNON CORP,Officer,Sr. Vice President & CHRO,NY,GETZVILLE,14068,44.98,8057.24,D,4.0,Common Stock,333.62,D,43.02696,-78.75808,2024Q2
0001628280-24-040521,2024-09-16,12-SEP-2024,4,INSM,INSMED Inc,Officer,Chief Medical Officer,NJ,BRIDGEWATER,8807,34.03,119570.0,D,4.0,Common Stock,13436.0,A,40.59241,-74.6202,2024Q3
0001593968-24-000303,2024-02-16,15-FEB-2024,4,DECK,DECKERS OUTDOOR CORP,"Director,Officer",President & CEO,CA,GOLETA,93117,862.53,98218.0,D,4.0,Common Stock,5993.0,D,34.49102,-120.08201,2024Q1
0001415889-24-012324,2024-05-06,03-MAY-2024,4,NET,"Cloudflare, Inc.",Officer,CHIEF FINANCIAL OFFICER,TX,AUSTIN,78702,77.77,338469.0,D,4.0,Class A Common Stock,100.0,D,30.26339,-97.7144,2024Q2
0001127602-24-008530,2024-03-05,04-MAR-2024,4,UHS,UNIVERSAL HEALTH SERVICES INC,Officer,"Executive Vice President, UHS",PA,KING OF PRUSSIA,19406,176.49,458.99,D,4.0,Class B Common Stock,606.0,D,40.09467,-75.38402,2024Q1
0001127602-24-023388,2024-09-04,30-AUG-2024,4,AVNT,AVIENT CORP,Officer,"SVP, Glbl Ops & Process Imprv",OH,AVON LAKE,44012,49.01,38424.0,D,4.0,Common Stock,14858.0,D,41.49443,-82.01594,2024Q3
0001562180-24-007354,2024-10-16,13-OCT-2024,4,MU,MICRON TECHNOLOGY INC,Officer,EVP and Chief Business Officer,ID,BOISE,83716,106.92,256806.0,D,4.0,Common Stock,19484.0,D,43.67271,-115.6548,2024Q4
0001562180-24-002027,2024-03-01,28-FEB-2024,4,BRY,Berry Corp (bry),Officer,Chief Executive Officer,TX,DALLAS,75248,6.83,201514.0,D,4.0,Common Stock,44397.0,D,32.96957,-96.79542,2024Q1
0001437749-24-010891,2024-04-03,01-APR-2024,4,NWPX,NORTHWEST PIPE CO,Officer,President & CEO,WA,VANCOUVER,98684,35.16,121622.0,D,4.0,Common Stock,3232.0,D,45.6308,-122.51615,2024Q2
0001065280-24-000095,2024-03-04,01-MAR-2024,4,NFLX,NETFLIX INC,"Director,Officer",Executive Chairman,CA,LOS GATOS,95032,610.3,7906.0,D,4.0,Common Stock,1330.0,D,37.20859,-121.92359,2024Q1
0001562088-24-000056,2024-03-04,01-MAR-2024,4,DUOL,"Duolingo, Inc.",Officer,Chief Financial Officer,PA,PITTSBURGH,15206,236.14,65538.0,D,4.0,Class A Common Stock,2147.0,D,40.47244,-79.91324,2024Q1
0001104659-25-000769,2025-01-03,31-DEC-2024,4,SANM,SANMINA CORP,Officer,EVP & Global Sales,CA,SAN JOSE,95134,75.67,44217.0,D,4.0,Common Stock,6082.0,D,37.43003,-121.94528,2025Q1
0000914475-24-000100,2024-04-03,01-APR-2024,4,NBIX,NEUROCRINE BIOSCIENCES INC,Officer,Chief Regulatory Officer,CA,SAN DIEGO,92130,79.02,7779.0,D,4.0,Common Stock,272.0,A,32.94763,-117.20586,2024Q2
0001020569-24-000165,2024-06-05,03-JUN-2024,4,IRM,IRON MOUNTAIN INC,"Director,Officer",President and CEO,NH,PORTSMOUTH,3801,48.54,311525.0,D,4.0,"Common Stock, par value $.01 per share",15875.0,A,43.07293,-70.8052,2024Q2
0001437749-24-021327,2024-06-26,24-JUN-2024,4,PPIH,"Perma-Pipe International Holdings, Inc.",Officer,Chief Financial Officer,TX,SPRING,77386,8.93,3515.0,D,4.0,Common Stock,583.0,D,30.10153,-95.3561,2024Q2
0000821026-25-000019,2025-02-12,10-FEB-2025,4,ANDE,"Andersons, Inc.",Officer,"VP, Corp Controller & IR",OH,MAUMEE,43537,40.74,12593.69,D,4.0,Common Stock,438.0,D,41.57433,-83.68542,2025Q1
0000950170-24-058738,2024-05-13,09-MAY-2024,4,CTVA,"Corteva, Inc.",Officer,See Remarks,IN,INDIANAPOLIS,46268,57.64,53853.91,D,4.0,Common Stock,31686.0,D,39.89769,-86.23253,2024Q2
0000784977-24-000014,2024-02-16,09-FEB-2024,4,POR,PORTLAND GENERAL ELECTRIC CO /OR/,Officer,Vice President,OR,"PORTLAND, OR",97204,40.11,12622.0,D,4.0,Common Stock,2644.0,A,45.5183,-122.67378,2024Q1
0001225208-24-004255,2024-03-14,12-MAR-2024,4,CI,Cigna Group,"Director,Officer",Chairman & CEO,CT,BLOOMFIELD,6002,139.22,348054.0,D,4.0,"Common Stock, $.01 Par Value",7616.0,A,41.84286,-72.73714,2024Q1
0001214659-24-002068,2024-02-07,05-FEB-2024,4,MPWR,MONOLITHIC POWER SYSTEMS INC,Officer,Pres. of MPS Asia Operations,WA,KIRKLAND,98033,641.0,209439.0,D,4.0,Common Stock,982.0,D,47.67616,-122.19267,2024Q1
0001141391-25-000053,2025-03-06,05-MAR-2025,4,MA,Mastercard Inc,Officer,Chief Services Officer,NY,PURCHASE,10577,556.55,67275.82,D,4.0,Class A Common Stock,300.0,D,41.03755,-73.71349,2025Q1
0001561894-24-000101,2024-09-17,13-SEP-2024,4,HASI,"HA Sustainable Infrastructure Capital, Inc.","Director,Officer",Executive Chair,MD,ANNAPOLIS,21401,34.92,473049.0,I,4.0,"Common stock, par value $0.01 per share",109670.0,D,38.98967,-76.5505,2024Q3
0001877322-24-000103,2024-05-13,12-MAY-2024,4,ESAB,ESAB Corp,Officer,"President, Fab Tech",MD,NORTH BETHESDA,20852,110.27,8041.0,D,4.0,"Common stock, par value $0.001",485.0,D,39.05134,-77.12507,2024Q2
0001204816-24-000012,2024-08-16,15-AUG-2024,4,VRSN,VERISIGN INC/CA,"Director,Officer","Exec. Chairman, Pres, & CEO",VA,RESTON,20190,177.77,530457.0,D,4.0,Common Stock,384.0,D,38.95968,-77.33806,2024Q3
0001127602-24-005769,2024-02-20,16-FEB-2024,4,ARW,"ARROW ELECTRONICS, INC.",Officer,"President, Global ECS",CO,CENTENNIAL,80112,113.8,12690.0,D,4.0,Common Stock,515.0,D,39.57288,-104.85854,2024Q1
0001127602-24-005255,2024-02-15,13-FEB-2024,4,PRU,PRUDENTIAL FINANCIAL INC,Officer,SVP and Controller,NJ,NEWARK,7102,105.24,12936.0,D,4.0,Common Stock,2110.0,D,40.73576,-74.17343,2024Q1
0001127602-24-010641,2024-03-19,18-MAR-2024,4,CRM,"Salesforce, Inc.","Director,Officer",Chair and CEO,CA,SAN FRANCISCO,94105,296.72,13160311.0,D,4.0,Common Stock,855.0,D,37.79239,-122.39707,2024Q1
0001104659-24-128952,2024-12-16,12-DEC-2024,4,WAY,Waystar Holding Corp.,Officer,Chief Financial Officer,UT,LEHI,84043,34.21,173642.0,D,4.0,Common Stock,47.0,D,40.41209,-111.87377,2024Q4
0001628280-24-049039,2024-11-22,20-NOV-2024,4,UPST,"Upstart Holdings, Inc.",Officer,Chief Legal Officer,CA,SAN MATEO,94403,69.6,152522.0,D,4.0,Common Stock,4649.0,D,37.53844,-122.30454,2024Q4
0001562180-24-006035,2024-08-06,02-AUG-2024,4,BECN,BEACON ROOFING SUPPLY INC,Officer,EVP & CTO,VA,HERNDON,20170,35.78,1947.0,D,4.0,"Common Stock, $0.01 par value",1627.0,A,38.98075,-77.38042,2024Q3
0000889331-24-000154,2024-07-18,16-JUL-2024,4,LFUS,LITTELFUSE INC /DE,"Director,Officer",President & CEO,IL,CHICAGO,60631,274.79,60473.0,D,4.0,Common Stock,4784.0,D,41.99473,-87.8131,2024Q3
0001434728-24-000246,2024-07-02,28-JUN-2024,4,GWRS,"Global Water Resources, Inc.","Director,Officer",President and CEO,AZ,PHOENIX,85027,12.09,109666.0,D,4.0,Common Stock,3203.0,A,33.6771,-112.10206,2024Q3
0001655210-24-000110,2024-05-07,06-MAY-2024,4,BYND,"BEYOND MEAT, INC.",Officer,Chief Marketing Officer,CA,EL SEGUNDO,90245,8.23,77738.0,D,4.0,Common Stock,938.0,D,33.91709,-118.40161,2024Q2
0000950103-24-002230,2024-02-14,14-FEB-2024,4,META,"Meta Platforms, Inc.","Director,Officer,TenPercentOwner",COB and CEO,CA,MENLO PARK,94025,468.06,333691.0,I,4.0,Class A Common Stock,600.0,D,37.45087,-122.1829,2024Q1
0001174947-24-001134,2024-10-10,09-OCT-2024,4,ESP,ESPEY MFG & ELECTRONICS CORP,Officer,Corporate Secretary,NY,S GLENSFALLS,12803,29.0,988.0,D,4.0,Common Stock - $.33 1/3 par value,30.0,D,43.28891,-73.63024,2024Q4
0001213900-24-112325,2024-12-26,23-DEC-2024,4,RBOT,Vicarious Surgical Inc.,"Director,Officer,TenPercentOwner",CEO,MA,WALTHAM,2451,12.27,53642.0,D,4.0,Class A Common Stock,139.0,D,42.39859,-71.2573,2024Q4
0000318300-24-000279,2024-07-03,01-JUL-2024,4,PEBO,PEOPLES BANCORP INC,Officer,"EVP,  Community Banking",OH,MARIETTA,45750,25.26,8349.2,D,4.0,Common Stock,203.1,A,39.4301,-81.42947,2024Q3
0001628280-24-005296,2024-02-16,14-FEB-2024,4,NOC,NORTHROP GRUMMAN CORP /DE/,Officer,"CVP & Pres, Mission Systems",VA,FALLS CHURCH,22042,446.37,18314.09,D,4.0,Common Stock,4770.0,D,38.86463,-77.19406,2024Q1
0001104659-24-074031,2024-06-21,18-JUN-2024,4,NET,"Cloudflare, Inc.","Director,Officer",President and COO,CA,SAN FRANCISCO,94107,76.4,160.0,I,4.0,Class A Common Stock,10096.0,D,37.76473,-122.39508,2024Q2
0001415889-25-006958,2025-03-05,03-MAR-2025,4,LECO,LINCOLN ELECTRIC HOLDINGS INC,Officer,"EVP, GENERAL COUNSEL & SECY",OH,CLEVELAND,44117,200.31,22173.0,D,4.0,Common Shares,1399.0,D,41.57145,-81.52695,2025Q1
0001723596-25-000036,2025-02-11,07-FEB-2025,4,CLBK,"Columbia Financial, Inc.",Officer,"EVP, Operations Officer",NJ,FAIR LAWN,7410,16.15,2156.56,I,4.0,Common Stock,46.44,A,40.93587,-74.11771,2025Q1
0001127602-24-011747,2024-04-02,01-APR-2024,4,BANR,BANNER CORP,Officer,Executive VP,WA,WALLA WALLA,99362,46.97,17601.0,D,4.0,"Common Stock,  $0.01 par value per share",3708.0,A,46.08727,-118.31269,2024Q2
0001065280-25-000104,2025-02-06,05-FEB-2025,4,NFLX,NETFLIX INC,Officer,Chief Legal Officer,CA,LOS GATOS,95032,992.24,41848.0,D,4.0,Common Stock,5526.0,D,37.20859,-121.92359,2025Q1
0001424929-24-000118,2024-08-15,13-AUG-2024,4,FOXF,FOX FACTORY HOLDING CORP,Officer,SEE REMARKS (A),GA,DULUTH,30097,40.01,14637.0,D,4.0,Common Stock,3000.0,D,34.0271,-84.14702,2024Q3
0001127602-25-005227,2025-02-18,15-FEB-2025,4,CMG,CHIPOTLE MEXICAN GRILL INC,Officer,Chief Executive Officer,CA,NEWPORT BEACH,92660,58.13,350291.0,D,4.0,common stock,24446.0,D,33.63375,-117.87504,2025Q1
0001062993-24-002869,2024-02-12,08-FEB-2024,4,DOV,DOVER Corp,Officer,VP & Treasurer,IL,DOWNERS GROVE,60515,160.11,5739.0,D,4.0,Common Stock,173.0,D,41.80991,-88.0247,2024Q1
0001859285-24-000041,2024-05-22,20-MAY-2024,4,HRT,HireRight Holdings Corp,Officer,Gen Counsel & Secretary,TN,NASHVILLE,37214,14.32,21403.0,D,4.0,Common Stock,4573.0,D,36.16789,-86.66296,2024Q2
0001225208-24-009823,2024-11-08,07-NOV-2024,4,CARR,CARRIER GLOBAL Corp,Officer,"VP, Controller & CAO",FL,PALM BEACH GARDENS,33418,76.34,2042.0,D,4.0,Common Stock,11647.0,D,26.86077,-80.16641,2024Q4
0001225208-24-008749,2024-09-18,17-SEP-2024,4,ADP,AUTOMATIC DATA PROCESSING INC,Officer,Corp VP,NJ,ROSELAND,7068,280.0,18606.65,D,4.0,Common Stock,1383.0,D,40.82077,-74.30862,2024Q3
0001818382-24-000084,2024-06-04,31-MAY-2024,4,HUMA,"Humacyte, Inc.","Director,Officer","President, CEO and Director",NC,DURHAM,27713,7.28,5189288.0,I,4.0,Common Stock,1852.0,D,35.88401,-78.936,2024Q2
0001225208-24-003274,2024-02-29,28-FEB-2024,4,EFX,EQUIFAX INC,"Director,Officer",CEO,GA,ATLANTA,30309,266.88,143952.0,D,4.0,Common Stock,18323.0,D,33.798,-84.38774,2024Q1
0001127602-25-001902,2025-01-23,22-JAN-2025,4,CRM,"Salesforce, Inc.",Officer,Pres. & Chief Product Officer,CA,SAN FRANCISCO,94105,332.28,20237.0,D,4.0,Common Stock,647.0,D,37.79239,-122.39707,2025Q1
0000950170-24-014690,2024-02-13,09-FEB-2024,4,COP,CONOCOPHILLIPS,Officer,Senior Vice President,TX,HOUSTON,77084,112.66,7202.0,D,4.0,Common Stock,1525.0,D,29.82698,-95.6612,2024Q1
0000950170-24-091031,2024-08-05,01-AUG-2024,4,TRNO,Terreno Realty Corp,Officer,CFO,WA,BELLEVUE,98004,68.45,95568.0,D,4.0,"Common Stock, $0.01 par value per share",5120.0,D,47.61865,-122.20548,2024Q3
0001415889-24-027640,2024-11-25,22-NOV-2024,4,AL,AIR LEASE CORP,Officer,EVP,CA,LOS ANGELES,90067,50.48,97714.0,D,4.0,Air Lease Corporation - Class A Common Stock,14661.0,D,34.0565,-118.41373,2024Q4
0001415889-24-019102,2024-07-03,01-JUL-2024,4,CLH,CLEAN HARBORS INC,Officer,EVP (CHESI),MA,WALPOLE,2081,220.63,61013.0,D,4.0,Common Stock,1790.0,D,42.14689,-71.25916,2024Q3
0001127602-24-007042,2024-02-27,24-FEB-2024,4,EFSC,ENTERPRISE FINANCIAL SERVICES CORP,Officer,"SEVP, Chief Risk Officer",MO,CLAYTON,63105,40.83,4787.0,D,4.0,Common Stock,81.0,D,38.64427,-90.32812,2024Q1
0001415889-24-027235,2024-11-19,15-NOV-2024,4,INFA,Informatica Inc.,Officer,CHIEF ACCOUNTING OFFICER,CA,REDWOOD CITY,94063,24.73,142671.0,D,4.0,Class A Common Stock,10026.0,D,37.49367,-122.20823,2024Q4
0001127602-25-006633,2025-02-25,21-FEB-2025,4,INTA,"Intapp, Inc.",Officer,Chief Product Officer,CA,PALO ALTO,94306,66.18,857250.0,D,4.0,Common Stock,1975.0,D,37.41627,-122.13088,2025Q1
0001562180-24-005326,2024-06-27,27-JUN-2024,4,TROW,PRICE T ROWE GROUP INC,Officer,Principal Accounting Officer,MD,BALTIMORE,21202,115.85,14197.92,D,4.0,Common Stock,1401.0,D,39.29705,-76.60747,2024Q2
0001213900-24-016160,2024-02-22,20-FEB-2024,4,OLLI,"Ollie's Bargain Outlet Holdings, Inc.",Officer,SVP/CFO,PA,HARRISBURG,17112,80.0,839.0,D,4.0,"Common Stock, par value $0.001 per share",269.0,D,40.37497,-76.77163,2024Q1
0000950170-25-025718,2025-02-24,20-FEB-2025,4,KOP,Koppers Holdings Inc.,"Director,Officer",CEO,PA,PITTSBURGH,15219,17.57,369798.4,D,4.0,Common Stock,6000.0,A,40.44304,-79.98443,2025Q1
0001773751-24-000365,2024-11-19,18-NOV-2024,4,HIMS,"Hims & Hers Health, Inc.",Officer,Chief Operating Officer,CA,SAN FRANCISCO,94123,21.3,671291.0,D,4.0,Class A Common Stock,11426.0,D,37.80112,-122.43645,2024Q4
0001547285-25-000002,2025-02-04,31-JAN-2025,4,ELS,EQUITY LIFESTYLE PROPERTIES INC,Officer,EVP & Chief Financial Officer,IL,CHICAGO,60606,65.29,71395.0,D,4.0,"Common Stock, par value $.01",1583.0,D,41.88178,-87.63724,2025Q1
0001713445-24-000138,2024-12-18,16-DEC-2024,4,RDDT,"Reddit, Inc.",Officer,Chief Operating Officer,CA,SAN FRANCISCO,94107,166.74,1537230.0,D,4.0,Class A Common Stock,400.0,D,37.76473,-122.39508,2024Q4
0001437749-25-008033,2025-03-17,13-MAR-2025,4,AVPT,"AvePoint, Inc.",Officer,Chief Financial Officer,NJ,JERSEY CITY,7310,13.79,551089.0,D,4.0,Common Stock,6120.0,D,40.72893,-74.03391,2025Q1
0001610717-24-000506,2024-10-15,11-OCT-2024,4,RVMD,"Revolution Medicines, Inc.",Officer,General Counsel,CA,REDWOOD CITY,94063,50.17,45634.0,D,4.0,Common Stock,6000.0,D,37.49367,-122.20823,2024Q4
0001127602-24-022099,2024-08-13,11-AUG-2024,4,WEN,Wendy's Co,Officer,Chf Corp Affrs & Sustnblty Ofc,OH,DUBLIN,43017,17.12,83492.0,D,4.0,Common Stock,447.0,D,40.1189,-83.13314,2024Q3
0001415889-24-025235,2024-10-16,15-OCT-2024,4,FTNT,"Fortinet, Inc.","Director,Officer",PRESIDENT & CEO,CA,SUNNYVALE,94086,81.89,48915630.0,D,4.0,Common Stock,23207.0,D,37.37164,-122.02316,2024Q4
0000950170-25-037016,2025-03-11,07-MAR-2025,4,KR,KROGER CO,Officer,Senior VP & Interim CFO,OH,CINCINNATI,45202,66.7,53253.0,D,4.0,Common Stock,529.0,D,39.10885,-84.50243,2025Q1
0001104485-24-000198,2024-10-04,03-OCT-2024,4,N O G,"NORTHERN OIL & GAS, INC.",Officer,President,MN,MINNETONKA,55343,37.5,17035.0,I,4.0,Common Stock,122.0,D,44.91433,-93.41568,2024Q4
0001819848-25-000158,2025-02-12,10-FEB-2025,4,JOBY,"Joby Aviation, Inc.",Officer,See Remarks,CA,SANTA CRUZ,95060,7.5,46014.0,D,4.0,Common Stock,218.0,D,37.01352,-122.10176,2025Q1
0000816761-24-000051,2024-03-05,01-MAR-2024,4,TDC,TERADATA CORP /DE/,Officer,Chief Financial Officer,CA,SAN DIEGO,92127,38.56,157655.0,D,4.0,Common Stock,5005.0,D,33.01913,-117.12339,2024Q1
0000950170-24-081882,2024-07-05,03-JUL-2024,4,PLAY,"Dave & Buster's Entertainment, Inc.",Officer,Chief Financial Officer,TX,COPPELL,75019,37.82,35738.0,D,4.0,Common Stock,140.0,A,32.96183,-96.984,2024Q3
0001127602-25-004871,2025-02-14,12-FEB-2025,4,MRNA,"Moderna, Inc.","Director,Officer",Chief Executive Officer,MA,CAMBRIDGE,2142,30.93,5493897.0,D,4.0,Common Stock,6400.0,D,42.36295,-71.08189,2025Q1
0000088941-24-000139,2024-12-23,19-DEC-2024,4,SMTC,SEMTECH CORP,Officer,SVP and GM,CA,CAMARILLO,93012,63.8,6317.0,D,4.0,Common Stock,548.0,D,34.20518,-118.99309,2024Q4
0001739445-24-000095,2024-05-16,15-MAY-2024,4,ACA,"Arcosa, Inc.",Officer,Group President,TX,DALLAS,75201,88.88,12970.0,D,4.0,Common Stock,5977.0,D,32.78826,-96.79953,2024Q2
0001877322-25-000030,2025-02-26,24-FEB-2025,4,ESAB,ESAB Corp,Officer,"Controller, PAO",MD,NORTH BETHESDA,20852,121.47,7308.0,D,4.0,"Common stock, par value $0.001",226.0,D,39.05134,-77.12507,2025Q1
0001835681-24-000032,2024-03-29,27-MAR-2024,4,PWSC,"POWERSCHOOL HOLDINGS, INC.",Officer,CPO,CA,FOLSOM,95630,21.09,230147.0,D,4.0,Class A Common Stock,795.0,D,38.66558,-121.141,2024Q1
0001062993-25-006493,2025-03-28,26-MAR-2025,4,STC,STEWART INFORMATION SERVICES CORP,Officer,Chief Financial Officer,TX,HOUSTON,77056,71.52,60583.0,D,4.0,Common Stock,1736.0,D,29.74849,-95.46806,2025Q1
0001064728-25-000025,2025-03-04,03-MAR-2025,4,BTU,PEABODY ENERGY CORP,Officer,CAO and Corporate Secretary,MO,ST. LOUIS,63101,14.22,77619.0,D,4.0,Common Stock,2018.0,D,38.63127,-90.19275,2025Q1
0001467373-24-000131,2024-04-16,12-APR-2024,4,ACN,Accenture plc,"Director,Officer",Chair and CEO,IL,CHICAGO,60661,313.91,18166.0,D,4.0,Class A ordinary shares,813.0,D,41.88291,-87.64409,2024Q2
0001288847-24-000139,2024-09-12,10-SEP-2024,4,FIVN,"Five9, Inc.",Officer,Chief Financial Officer,CA,"SAN RAMON,",94583,26.91,102258.0,D,4.0,Common Stock,3882.0,D,37.77245,-121.99157,2024Q3
0000950170-24-006057,2024-01-22,19-JAN-2024,4,MSTR,MICROSTRATEGY Inc,"Director,Officer,TenPercentOwner",Executive Chairman,VA,TYSONS CORNER,22182,482.27,1076.0,D,4.0,Class A Common Stock,522.0,D,38.93611,-77.2736,2024Q1
0001628280-24-026060,2024-05-31,30-MAY-2024,4,GPOR,GULFPORT ENERGY CORP,Officer,VP & CAO,OK,OKLAHOMA CITY,73114,158.83,3210.0,D,4.0,Common Stock,632.0,D,35.57916,-97.51784,2024Q2
0001518715-25-000007,2025-01-03,01-JAN-2025,4,HMST,"HomeStreet, Inc.",Officer,"EVP, Chief Investment Officer",WA,SEATTLE,98101,11.42,77604.0,D,4.0,Common Stock,317.0,D,47.61119,-122.33454,2025Q1
0001498710-24-000039,2024-01-18,28-DEC-2023,4/A,SAVE,"Spirit Airlines, Inc.",Officer,EVP and CFO,FL,MIRAMAR,33025,7.92,83429.0,D,4.0,Common Stock,863.0,D,25.98737,-80.28134,2024Q1
0000058492-24-000330,2024-05-06,03-MAY-2024,4,LEG,LEGGETT & PLATT INC,"Director,Officer",President and CEO,MO,CARTHAGE,64836,11.86,536246.97,D,4.0,Common Stock,176.42,A,37.18886,-94.28898,2024Q2
0001415889-24-015563,2024-06-05,03-JUN-2024,4,UTHR,UNITED THERAPEUTICS Corp,"Director,Officer",Chairperson & CEO,MD,SILVER SPRING,20910,276.48,369.0,D,4.0,Common Stock,123.0,D,39.00227,-77.03634,2024Q2
0001225208-24-009884,2024-11-13,31-OCT-2024,5,EVT,EATON VANCE TAX ADVANTAGED DIVIDEND INCOME FUND,Officer,Portfolio Manager,MA,BOSTON,2109,24.04,2215.0,D,5.0,Common Shares,1865.0,A,42.36498,-71.05277,2024Q4
0000098362-25-000022,2025-02-11,08-FEB-2025,4,TKR,TIMKEN CO,Officer,EVP & Pres. Industrial Motion,OH,NORTH CANTON,44720,81.15,89092.0,D,4.0,Common Stock,502.0,D,40.90112,-81.43259,2025Q1
0000063908-24-000108,2024-06-21,21-JUN-2024,4,MCD,MCDONALDS CORP,Officer,"President, McDonald's USA",IL,CHICAGO,60607,260.0,14780.34,D,4.0,Common Stock,1098.0,D,41.87467,-87.65175,2024Q2
0001418135-25-000043,2025-03-14,12-MAR-2025,4,KDP,Keurig Dr Pepper Inc.,Officer,Chief Human Resources Officer,TX,FRISCO,75034,32.81,190511.0,D,4.0,Common Stock,3116.0,D,33.12084,-96.83778,2025Q1
0000927066-25-000057,2025-03-18,15-MAR-2025,4,DVA,DAVITA INC.,Officer,"Chief Operating Officer, DKC",CO,DENVER,80202,143.45,129767.0,D,4.0,Common Stock,4312.0,D,39.75156,-104.99768,2025Q1
0000950170-24-082439,2024-07-09,07-JUL-2024,4,VSAT,VIASAT INC,Officer,Pres. Global Fixed Broadband,CA,CARLSBAD,92009,14.39,21968.0,D,4.0,$.0001 par value common stock,2375.0,D,33.09535,-117.24574,2024Q3
0001739566-24-000025,2024-02-02,31-JAN-2023,4,UTZ,"Utz Brands, Inc.",Officer,EVP & CFO,PA,HANOVER,17331,16.24,111337.0,D,4.0,Class A Common Stock,1484.0,D,39.79085,-76.98028,2024Q1
0000950103-24-003506,2024-03-06,04-MAR-2024,4,META,"Meta Platforms, Inc.","Director,Officer,TenPercentOwner",COB and CEO,CA,MENLO PARK,94025,499.31,22670.0,I,4.0,Class A Common Stock,4226.0,D,37.45087,-122.1829,2024Q1
0001127602-24-007851,2024-03-01,28-FEB-2024,4,NI,NISOURCE INC.,Officer,"SVP, GC & Corp Sec",IN,MERRILLVILLE,46410,25.85,35213.0,D,4.0,Common Stock,2197.0,D,41.48083,-87.33293,2024Q1
0001437749-24-020365,2024-06-14,03-JUN-2024,4,HFBL,"Home Federal Bancorp, Inc. of Louisiana",Officer,Sr. VP Retail & COO*,LA,SHREVEPORT,71105,9.46,9060.0,D,4.0,Common Stock,1350.0,A,32.45512,-93.71012,2024Q2
0001477932-24-007675,2024-11-27,18-NOV-2024,4,LTBR,LIGHTBRIDGE Corp,Officer,CFO,VA,RESTON,20190,6.61,141550.0,D,4.0,Common Stock,4674.0,D,38.95968,-77.33806,2024Q4
0000898174-24-000027,2024-01-22,18-JAN-2024,4,RGA,REINSURANCE GROUP OF AMERICA INC,Officer,"EVP, Global Chief Risk Officer",MO,CHESTERFIELD,63017,168.31,6636.0,D,4.0,Common Stock,742.0,D,38.65143,-90.53722,2024Q1
0001127602-24-025869,2024-10-22,22-OCT-2024,4,CRM,"Salesforce, Inc.",Officer,President and COO,CA,SAN FRANCISCO,94105,218.21,6161.0,D,4.0,Common Stock,2106.0,A,37.79239,-122.39707,2024Q4
0001562180-25-002670,2025-03-21,19-MAR-2025,4,JAMF,Jamf Holding Corp.,"Director,Officer",CEO,MN,MINNEAPOLIS,55401,13.59,1540226.0,D,4.0,Common Stock,56170.0,D,44.98526,-93.26984,2025Q1
0001127602-24-011687,2024-04-02,01-APR-2024,4,YUM,YUM BRANDS INC,Officer,"Vice President, Controller",KY,LOUISVILLE,40213,138.65,22534.0,D,4.0,Common Stock,1398.0,A,38.177,-85.71571,2024Q2
0000950170-24-101848,2024-08-29,27-AUG-2024,4,SKX,SKECHERS USA INC,"Director,Officer",President,CA,MANHATTAN BEACH,90266,69.88,170160.26,D,4.0,Class A Common Stock,422000.0,D,33.88968,-118.39705,2024Q3
0001628280-25-006295,2025-02-19,17-FEB-2025,4,FET,"FORUM ENERGY TECHNOLOGIES, INC.",Officer,"EVP, General Counsel & CCO",TX,HOUSTON,77064,19.37,50610.0,D,4.0,Common Stock,1543.0,D,29.92279,-95.5467,2025Q1
0001065280-24-000226,2024-08-07,05-AUG-2024,4,NFLX,NETFLIX INC,Officer,Chief Legal Officer,CA,LOS GATOS,95032,598.55,31878.0,D,4.0,Common Stock,276.0,D,37.20859,-121.92359,2024Q3
0001415889-25-006621,2025-03-04,01-MAR-2025,4,ELAN,Elanco Animal Health Inc,Officer,"EVP, MANUFACTURING AND QUALITY",IN,GREENFIELD,46140,11.17,52211.0,D,4.0,Common Stock,3430.0,D,39.80358,-85.77049,2025Q1
0000950170-24-087889,2024-07-30,26-JUL-2024,4,FLGT,"Fulgent Genetics, Inc.",Officer,Chief Scientific Officer,CA,EL MONTE,91731,23.66,925234.0,D,4.0,Common Stock,1154.0,D,34.07914,-118.04047,2024Q3
0001250842-24-000007,2024-03-06,02-MAR-2024,4/A,SBGI,"Sinclair, Inc.",Officer,Treasurer,MD,HUNT VALLEY,21030,14.52,14694.0,D,4.0,Class A Common Stock,2262.0,D,39.49002,-76.6659,2024Q1
0001104659-24-075169,2024-06-26,25-JUN-2024,4,OBIO,"Orchestra BioMed Holdings, Inc.","Director,Officer",See Remarks,PA,NEW HOPE,18938,6.95,333502.0,I,4.0,"Common Stock, par value $0.0001 per share (""Common Stock"")",1000.0,A,40.35126,-74.99779,2024Q2
0001071255-25-000016,2025-03-14,12-MAR-2025,4,GDEN,"GOLDEN ENTERTAINMENT, INC.",Officer,EVP of Operations,NV,LAS VEGAS,89118,26.17,154170.0,D,4.0,Common Stock,8405.0,D,36.07778,-115.21306,2025Q1
0001539838-24-000005,2024-01-04,03-JAN-2024,4,FANG,"Diamondback Energy, Inc.","Director,Officer",Chief Executive Officer,TX,MIDLAND,79701,160.01,416242.0,I,4.0,Common Stock,30000.0,D,31.99239,-102.08105,2024Q1
0001062993-24-005347,2024-03-05,01-MAR-2024,4,VZ,VERIZON COMMUNICATIONS INC,"Director,Officer",Chairman and CEO,NY,NEW YORK,10036,40.2,265391.0,D,4.0,Common Stock,29945.0,D,40.75976,-73.99064,2024Q1
0000950170-24-113588,2024-10-08,07-OCT-2024,4,PAYC,"Paycom Software, Inc.","Director,Officer,TenPercentOwner","CEO, President and Chairman",OK,OKLAHOMA CITY,73142,165.67,2785945.0,D,4.0,Common Stock,815.0,D,35.60937,-97.63895,2024Q4
0000350698-24-000040,2024-03-05,01-MAR-2024,4,AN,"AUTONATION, INC.",Officer,EVP and CHIEF HR OFFICER,FL,FORT LAUDERDALE,33301,151.98,565.0,D,4.0,"Common Stock, par value $0.01 per share",358.0,D,26.12128,-80.12745,2024Q1
0000915913-24-000160,2024-11-08,06-NOV-2024,4,ALB,ALBEMARLE CORP,Officer,Chief Financial Officer,NC,CHARLOTTE,28209,96.58,1243.0,D,4.0,Common Stock,864.0,D,35.17878,-80.85418,2024Q4
0001562180-25-002341,2025-03-12,10-MAR-2025,4,BECN,BEACON ROOFING SUPPLY INC,Officer,"President, South Division",VA,HERNDON,20170,118.52,72037.0,D,4.0,"Common Stock, $0.01 par value",609.0,D,38.98075,-77.38042,2025Q1
0001437749-24-021291,2024-06-26,26-JUN-2024,4,NSTS,"NSTS Bancorp, Inc.",Officer,Chief Lending Officer,IL,WAUKEGAN,60085,9.61,43845.0,D,4.0,Common Stock,1155.0,D,42.35498,-87.86467,2024Q2
0001562180-24-006414,2024-08-20,16-AUG-2024,4,SIBN,"SI-BONE, Inc.",Officer,Chief Financial Officer,CA,SANTA CLARA,95050,13.88,198762.0,D,4.0,Common Stock,1155.0,D,37.3504,-121.95238,2024Q3
0001562180-24-001821,2024-02-27,23-FEB-2024,4,HTH,Hilltop Holdings Inc.,Officer,Chief Administrative Officer,TX,DALLAS,75205,30.82,87397.09,D,4.0,Common Stock,873.0,D,32.83657,-96.79617,2024Q1
0001127602-24-006202,2024-02-21,16-FEB-2024,4,CSGS,CSG SYSTEMS INTERNATIONAL INC,Officer,EVP & CFO,CO,ENGLEWOOD,80112,53.09,59302.0,D,4.0,Common Stock,2024.0,D,39.57288,-104.85854,2024Q1
0001437749-24-000607,2024-01-04,02-JAN-2024,4,RCMT,"RCM TECHNOLOGIES, INC.","Director,Officer,TenPercentOwner",Executive Chairman & President,NJ,PENNSAUKEN,8109,29.04,1483515.0,D,4.0,Common Stock,19973.0,D,39.95006,-75.05094,2024Q1
0001418135-25-000018,2025-03-05,03-MAR-2025,4,KDP,Keurig Dr Pepper Inc.,Officer,Chief Human Resources Officer,TX,FRISCO,75034,34.13,199537.0,D,4.0,Common Stock,2252.0,D,33.12084,-96.83778,2025Q1
0001968202-24-000056,2024-02-08,07-FEB-2024,4,REGN,"REGENERON PHARMACEUTICALS, INC.",Officer,EVP Research and Development,NY,TARRYTOWN,10591,950.43,54334.0,D,4.0,Common Stock,3127.0,D,41.08436,-73.84653,2024Q1
0001225208-24-007776,2024-08-01,31-JUL-2024,4,RTX,RTX Corp,"Director,Officer",Executive Chairman,VA,ARLINGTON,22209,82.35,966785.0,D,4.0,Common Stock,128541.0,A,38.89413,-77.07309,2024Q3
0001047127-24-000153,2024-07-17,15-JUL-2024,4,AMKR,"AMKOR TECHNOLOGY, INC.","Director,Officer",President and CEO,AZ,TEMPE,85284,14.17,153333.0,D,4.0,Common Stock,15000.0,A,33.33719,-111.93443,2024Q3
0001209191-24-003646,2024-02-21,16-FEB-2024,4,MFIN,MEDALLION FINANCIAL CORP,Officer,See Remarks,NY,NEW YORK,10022,8.97,53762.0,D,4.0,Common Stock,509.0,D,40.75856,-73.96787,2024Q1
0001593968-24-000994,2024-07-18,17-JUL-2024,4,MSBI,"Midland States Bancorp, Inc.",Officer,SVP Corporate Counsel,IL,EFFINGHAM,62401,25.4,33641.0,D,4.0,Common Stock,10796.0,D,39.11843,-88.56467,2024Q3
0000950170-24-028153,2024-03-07,05-MAR-2024,4,ACVA,ACV Auctions Inc.,Officer,Chief Operating Officer,NY,BUFFALO,14203,18.67,333327.0,D,4.0,Class A Common Stock,9003.0,D,42.86244,-78.86507,2024Q1
0001650164-24-000351,2024-10-22,18-OCT-2024,4,TOST,"Toast, Inc.",Officer,Chief Revenue Officer,MA,BOSTON,2210,30.39,38266.0,D,4.0,Class A Common Stock,50000.0,D,42.34815,-71.03942,2024Q4
0001062993-24-019306,2024-11-19,15-NOV-2024,4,OSK,OSHKOSH CORP,Officer,"EVP, CL&AO & Secretary",WI,OSHKOSH,54902,108.6,47063.96,D,4.0,Common Stock,1144.16,A,43.94934,-88.53969,2024Q4
0000063908-24-000113,2024-07-23,23-JUL-2024,4,MCD,MCDONALDS CORP,Officer,"President, McDonald's USA",IL,CHICAGO,60607,260.0,13681.34,D,4.0,Common Stock,1099.0,D,41.87467,-87.65175,2024Q3
0001225208-24-009397,2024-10-18,16-OCT-2024,4,JBL,JABIL INC,Officer,"EVP, Global Business Units",FL,ST. PETERSBURG,33716,124.26,49266.0,D,4.0,Common Stock,3030.0,D,27.8774,-82.65119,2024Q4
0000352541-25-000021,2025-02-24,20-FEB-2025,4,LNT,ALLIANT ENERGY CORP,Officer,Senior Vice President,WI,MADISON,53718,61.62,40827.13,D,4.0,Common Stock,2560.0,D,43.0977,-89.27332,2025Q1
0001561550-24-000114,2024-08-14,12-AUG-2024,4,DDOG,"Datadog, Inc.","Director,Officer",Chief Technology Officer,NY,NEW YORK,10018,10.74,474789.0,D,4.0,Class A Common Stock,10688.0,A,40.75536,-73.99265,2024Q3
0001782170-24-000053,2024-02-27,25-FEB-2024,4,RELY,"Remitly Global, Inc.","Director,Officer",Chief Operating Officer,WA,SEATTLE,98101,21.14,4055347.0,D,4.0,Common Stock,7415.0,D,47.61119,-122.33454,2024Q1
0001209191-24-005687,2024-05-22,20-MAY-2024,4,GD,GENERAL DYNAMICS CORP,Officer,Senior Vice President & CFO,VA,RESTON,20190,167.61,120596.0,D,4.0,Common Stock,36980.0,A,38.95968,-77.33806,2024Q2
0001562180-24-004072,2024-05-15,14-MAY-2024,4,TEAM,Atlassian Corp,Officer,President,CA,SAN FRANCISCO,94104,185.0,157027.0,D,4.0,Class A Common Stock,690.0,D,37.79144,-122.40211,2024Q2
0001127602-25-006638,2025-02-25,21-FEB-2025,4,INTA,"Intapp, Inc.",Officer,Chief People & Places Officer,CA,PALO ALTO,94306,69.18,218426.0,D,4.0,Common Stock,272.0,D,37.41627,-122.13088,2025Q1
0001185185-24-000287,2024-03-19,19-MAR-2024,4,SSNT,"SilverSun Technologies, Inc.","Director,Officer,TenPercentOwner",Chief Executive Officer,NJ,EAST HANOVER,7936,13.61,398046.0,D,4.0,"Common Stock, par value $0.00001 per share",8488.0,D,40.81918,-74.36382,2024Q1
0000897069-25-000420,2025-02-27,25-FEB-2025,4,MCS,MARCUS CORP,"Director,Officer","Sr Exec VP, Gen Counsel & Secy",WI,MILWAUKEE,53202,20.81,205875.0,D,4.0,Common Stock,2670.0,D,43.04561,-87.89893,2025Q1
0001104659-24-032028,2024-03-07,24-FEB-2024,4,WTTR,"Select Water Solutions, Inc.",Officer,EVP and CFO,TX,HOUSTON,77027,8.18,253565.0,D,4.0,Class A Common Stock,2022.0,D,29.73919,-95.44609,2024Q1
0001415889-25-000555,2025-01-03,01-JAN-2025,4,HLX,HELIX ENERGY SOLUTIONS GROUP INC,Officer,EVP & CFO,TX,HOUSTON,77043,9.32,450999.0,D,4.0,Common Stock,21076.0,D,29.8112,-95.57981,2025Q1
0001127602-24-023863,2024-09-12,10-SEP-2024,4,PHR,"Phreesia, Inc.",Officer,General Counsel & Secretary,DE,WILMINGTON,19803,23.36,121003.0,D,4.0,Common Stock,2072.0,D,39.79912,-75.5422,2024Q3
0001562180-24-007700,2024-11-14,12-NOV-2024,4,APP,AppLovin Corp,Officer,Chief Marketing Officer,CA,PALO ALTO,94304,290.76,1017388.0,D,4.0,Class A Common Stock,300.0,D,37.39744,-122.16699,2024Q4
0001562088-24-000004,2024-01-03,02-JAN-2024,4,DUOL,"Duolingo, Inc.",Officer,Chief Financial Officer,PA,PITTSBURGH,15206,217.29,65824.0,D,4.0,Class A Common Stock,300.0,D,40.47244,-79.91324,2024Q1
0000950170-25-025758,2025-02-24,21-FEB-2025,4,AFG,AMERICAN FINANCIAL GROUP INC,"Director,Officer",President,OH,CINCINNATI,45202,119.82,49610.89,I,4.0,Common Stock,2474.06,A,39.10885,-84.50243,2025Q1
0000950170-24-028646,2024-03-08,21-FEB-2024,4,IRBT,IROBOT CORP,Officer,EVP and General Counsel,MA,BEDFORD,1730,10.29,18224.0,D,4.0,Common Stock,428.0,D,42.4995,-71.27799,2024Q1
0001127602-24-023582,2024-09-05,03-SEP-2024,4,EQIX,EQUINIX INC,Officer,"EVP, GM, Data Center Services",CA,REDWOOD CITY,94065,817.59,7210.0,D,4.0,Common Stock,19.0,D,37.53504,-122.24683,2024Q3
0000950103-24-003676,2024-03-11,07-MAR-2024,4,META,"Meta Platforms, Inc.","Director,Officer,TenPercentOwner",COB and CEO,CA,MENLO PARK,94025,508.75,7750.0,I,4.0,Class A Common Stock,871.0,D,37.45087,-122.1829,2024Q1
0000950103-24-001251,2024-01-29,25-JAN-2024,4,META,"Meta Platforms, Inc.","Director,Officer,TenPercentOwner",COB and CEO,CA,MENLO PARK,94025,395.36,372306.0,I,4.0,Class A Common Stock,50.0,D,37.45087,-122.1829,2024Q1
0001812385-24-000003,2024-07-29,18-JUN-2024,4,NSSC,"NAPCO SECURITY TECHNOLOGIES, INC",Officer,Senior Vice President of Sales,NY,AMITYVILLE,11701,52.1,27493.0,D,4.0,Common Stock,435.0,D,40.6817,-73.41289,2024Q3
0001039684-24-000126,2024-07-18,16-JUL-2024,4,OKE,ONEOK INC /NEW/,Officer,See Remarks,OK,TULSA,74103,85.06,8.0,D,4.0,"Common Stock, par value $0.01",1.0,A,36.15617,-95.9957,2024Q3
0000950170-24-090210,2024-08-02,31-JUL-2024,4,SNAP,Snap Inc,Officer,General Counsel,CA,SANTA MONICA,90405,13.28,463908.0,I,4.0,Class A Common Stock,18000.0,D,34.01208,-118.4679,2024Q3
0001104659-24-001936,2024-01-05,03-JAN-2024,4,CF,"CF Industries Holdings, Inc.",Officer,"VP, Gen. Counsel & Secretary",IL,NORTHBROOK,60062,82.7,15242.0,D,4.0,"Common stock, par value $0.01 per share",301.0,D,42.12663,-87.84235,2024Q1
0001127602-24-002700,2024-01-31,29-JAN-2024,4,FMBH,"FIRST MID BANCSHARES, INC.",Officer,"SVP, Chief Information Officer",IL,MATTOON,61938,33.5,5534.0,D,4.0,Common Stock,900.0,A,39.48004,-88.37571,2024Q1
0000950170-24-135861,2024-12-12,10-DEC-2024,4,HUBS,HUBSPOT INC,"Director,Officer",Chief Technology Officer,MA,CAMBRIDGE,2141,720.8,1315544.0,D,4.0,Common Stock,800.0,D,42.37041,-71.08218,2024Q4
0000950103-25-000930,2025-01-27,24-JAN-2025,4,META,"Meta Platforms, Inc.","Director,Officer,TenPercentOwner",COB and CEO,CA,MENLO PARK,94025,644.9,10538.0,I,4.0,Class A Common Stock,3816.0,D,37.45087,-122.1829,2025Q1
0000950170-24-098516,2024-08-19,15-AUG-2024,4,VRSK,"Verisk Analytics, Inc.","Director,Officer",Chief Executive Officer,NJ,JERSEY CITY,7310,268.59,56163.0,D,4.0,Common Stock,1000.0,D,40.72893,-74.03391,2024Q3
0001415889-24-012465,2024-05-07,03-MAY-2024,4,UTHR,UNITED THERAPEUTICS Corp,"Director,Officer",CHAIRPERSON & CEO,MD,SILVER SPRING,20910,259.15,2415.0,D,4.0,Common Stock,599.0,D,39.00227,-77.03634,2024Q2
0001171843-25-001534,2025-03-18,14-MAR-2025,4,ANIK,"Anika Therapeutics, Inc.",Officer,"SVP, Chief Operations Officer",MA,BEDFORD,1730,15.91,20654.0,D,4.0,Common Stock,1068.0,D,42.4995,-71.27799,2025Q1
0000950170-24-069017,2024-06-04,01-JUN-2024,4,OOMA,OOMA INC,"Director,Officer","SVP, General Counsel & Sec.",CA,SUNNYVALE,94085,8.64,153664.0,D,4.0,Common Stock,1338.0,D,37.38862,-122.01793,2024Q2
0001104659-24-099323,2024-09-12,10-SEP-2024,4,BSY,BENTLEY SYSTEMS INC,Officer,Chief Product Officer,PA,EXTON,19341,47.22,69078.0,D,4.0,Class B Common Stock,6450.0,D,40.04213,-75.63814,2024Q3
0001415889-24-019934,2024-07-23,19-JUL-2024,4,UTHR,UNITED THERAPEUTICS Corp,"Director,Officer",Chairperson & CEO,MD,SILVER SPRING,20910,329.4,3175.0,D,4.0,Common Stock,178.0,D,39.00227,-77.03634,2024Q3
0000950170-25-023608,2025-02-19,14-FEB-2025,4,CSX,CSX CORP,Officer,SVP - CLO & Corp Secy,FL,JACKSONVILLE,32202,33.37,39855.0,D,4.0,Common Stock,251.0,D,30.32505,-81.64786,2025Q1
0001562088-25-000048,2025-03-06,05-MAR-2025,4,DUOL,"Duolingo, Inc.",Officer,Chief Engineering Officer,PA,PITTSBURGH,15206,293.26,131133.0,D,4.0,Class A Common Stock,798.0,D,40.47244,-79.91324,2025Q1
0000217346-24-000024,2024-02-16,14-FEB-2024,4,TXT,TEXTRON INC,Officer,EVP and CHRO,RI,PROVIDENCE,2903,44.31,38945.0,D,4.0,Common Stock,5727.0,A,41.81902,-71.41003,2024Q1
0001415889-24-008641,2024-03-19,18-MAR-2024,4,CTKB,"Cytek Biosciences, Inc.","Director,Officer",CHIEF TECHNOLOGY OFFICER,CA,FREMONT,94538,6.71,6010402.0,D,4.0,Common Stock,20000.0,D,37.50653,-121.96361,2024Q1
0000950170-24-025380,2024-03-05,01-MAR-2024,4,MPC,Marathon Petroleum Corp,Officer,Chief Commercial Officer,OH,FINDLAY,45840,172.34,6061.0,D,4.0,Common Stock,192.0,D,41.02626,-83.64943,2024Q1
0001596532-24-000229,2024-06-05,03-JUN-2024,4,ANET,"Arista Networks, Inc.",Officer,SVP and General Counsel,CA,SANTA CLARA,95054,296.27,1224.0,D,4.0,Common Stock,676.0,D,37.39308,-121.96483,2024Q2
0001990755-24-000007,2024-12-04,02-DEC-2024,4,AB,ALLIANCEBERNSTEIN HOLDING L.P.,Officer,Chief Accounting Officer,TN,NASHVILLE,37203,36.27,2646.0,I,4.0,AB Holding Units,2563.0,D,36.14937,-86.78986,2024Q4
0001585689-24-000193,2024-10-25,24-OCT-2024,4,HLT,Hilton Worldwide Holdings Inc.,Officer,See Remarks,VA,MCLEAN,22102,235.73,22833.0,D,4.0,Common Stock,14357.0,D,38.95199,-77.22901,2024Q4
0000950170-24-026700,2024-03-05,02-MAR-2024,4,VTRS,Viatris Inc,Officer,See Remarks,PA,CANONSBURG,15317,12.33,153826.0,D,4.0,Common Stock,24353.0,D,40.27105,-80.16535,2024Q1
0001415889-24-020177,2024-07-26,24-JUL-2024,4,CAG,CONAGRA BRANDS INC.,Officer,EVP & COO,IL,CHICAGO,60654,29.86,201442.67,D,4.0,Common Stock,24236.0,D,41.89209,-87.63673,2024Q3
0001225208-24-004436,2024-03-22,20-MAR-2024,4,ADM,Archer-Daniels-Midland Co,"Director,Officer",President & CEO,IL,CHICAGO,60601,52.7,577371.0,D,4.0,Common Stock,10390.0,D,41.88527,-87.62197,2024Q1
0000950170-24-115723,2024-10-18,17-OCT-2024,4,KRRO,"Korro Bio, Inc.",Officer,Chief Financial Officer,MA,CAMBRIDGE,2141,74.56,7914.0,D,4.0,Common Stock,115.0,D,42.37041,-71.08218,2024Q4
0000904454-24-000617,2024-11-15,13-NOV-2024,4,MTSI,"MACOM Technology Solutions Holdings, Inc.","Director,Officer",President and CEO,MA,LOWELL,1851,130.43,50992.0,D,4.0,Common Stock,5729.0,D,42.62915,-71.33674,2024Q4
0001104659-25-021105,2025-03-05,03-MAR-2025,4,WRBY,Warby Parker Inc.,"Director,Officer",Co-Chief Executive Officer,NY,NEW YORK,10013,24.37,28652.0,D,4.0,Class A Common Stock,143917.0,D,40.72001,-74.00472,2025Q1
0000705432-25-000004,2025-02-04,01-FEB-2025,4,SBSI,SOUTHSIDE BANCSHARES INC,Officer,COO,TX,TYLER,75701,31.43,14315.0,D,4.0,Common Stock,217.0,D,32.32297,-95.29679,2025Q1
0001415889-25-002819,2025-02-03,31-JAN-2025,4,BBNX,"Beta Bionics, Inc.",Officer,Chief Product Officer,CA,IRVINE,92618,17.0,25669.0,D,4.0,Common Stock,13.0,D,33.66729,-117.73362,2025Q1
0001415889-24-006379,2024-03-04,29-FEB-2024,4,SPXC,"SPX Technologies, Inc.","Director,Officer",PRESIDENT AND CEO,NC,CHARLOTTE,28277,117.01,597936.0,D,4.0,Common Stock,256.0,D,35.05212,-80.81622,2024Q1
0001758730-25-000078,2025-03-21,19-MAR-2025,4,TW,Tradeweb Markets Inc.,Officer,Chief Risk Officer,NY,NEW YORK,10036,141.48,21033.0,D,4.0,Class A common stock,2314.0,D,40.75976,-73.99064,2025Q1
0001062993-24-014719,2024-08-08,07-AUG-2024,4,ALNT,ALLIENT INC,Officer,Chief Financial Officer,NY,AMHERST,14228,23.86,3652.0,D,4.0,Common Stock,3652.0,A,43.04214,-78.7798,2024Q3
0001104659-24-117942,2024-11-13,11-NOV-2024,4,RYTM,"RHYTHM PHARMACEUTICALS, INC.",Officer,"EVP, Head of North America",MA,BOSTON,2116,67.56,1172.0,D,4.0,Common Stock,11070.0,D,42.35105,-71.07638,2024Q4
0000950103-25-002122,2025-02-18,14-FEB-2025,4,META,"Meta Platforms, Inc.","Director,Officer,TenPercentOwner",COB and CEO,CA,MENLO PARK,94025,726.68,19478.0,I,4.0,Class A Common Stock,190.0,D,37.45087,-122.1829,2025Q1
0001562180-24-008243,2024-12-09,05-DEC-2024,4,PLNT,"Planet Fitness, Inc.",Officer,"Div. President, U.S. Franchise",NH,HAMPTON,3842,100.15,22063.0,D,4.0,Class A Common Stock,4641.0,D,42.93941,-70.83697,2024Q4
0001127602-24-002779,2024-01-31,29-JAN-2024,4,UMBF,UMB FINANCIAL CORP,Officer,EVP & General Counsel,MO,KANSAS CITY,64106,83.47,9935.59,D,4.0,Common Stock,744.0,D,39.10526,-94.57013,2024Q1
0001952333-24-000066,2024-08-13,09-AUG-2024,4,ACIW,"ACI WORLDWIDE, INC.",Officer,Chief Product Officer,NE,ELKHORN,68022,46.59,67540.0,D,4.0,Common Stock,490.0,D,41.27744,-96.24558,2024Q3
0001415889-24-010119,2024-04-03,01-APR-2024,4,PUBM,"PubMatic, Inc.",Officer,"PRESIDENT, ENGINEERING",CA,REDWOOD CITY,94063,23.16,30958.0,D,4.0,Class A Common Stock,4745.0,D,37.49367,-122.20823,2024Q2
0000950170-24-113588,2024-10-08,07-OCT-2024,4,PAYC,"Paycom Software, Inc.","Director,Officer,TenPercentOwner","CEO, President and Chairman",OK,OKLAHOMA CITY,73142,164.27,2786760.0,D,4.0,Common Stock,750.0,D,35.60937,-97.63895,2024Q4
0001628280-25-000628,2025-01-06,03-JAN-2025,4,INTU,INTUIT INC.,Officer,EVP and CFO,CA,MOUNTAIN VIEW,94043,628.5,1943.75,D,4.0,Common Stock,109.0,D,37.41188,-122.06892,2025Q1
0001013857-24-000218,2024-10-01,30-SEP-2024,4,PEGA,PEGASYSTEMS INC,Officer,Chief of Clients and Markets,MA,CAMBRIDGE,2142,72.0,38388.0,D,4.0,Common stock,752.0,D,42.36295,-71.08189,2024Q4
0000912593-24-000054,2024-02-14,12-FEB-2024,4,SUI,SUN COMMUNITIES INC,Officer,"EVP, COO",MI,SOUTHFIELD,48034,125.91,34271.0,D,4.0,"COMMON STOCK, $0.01 PAR VALUE",317.0,D,42.49689,-83.29102,2024Q1
0001593968-24-000611,2024-04-23,22-APR-2024,4,WASH,WASHINGTON TRUST BANCORP INC,Officer,SEVP and Chief Risk Officer,RI,EAST GREENWICH,2818,25.75,10111.0,D,4.0,Common Stock,876.0,D,41.64214,-71.49307,2024Q2
0001437107-24-000035,2024-03-01,28-FEB-2024,4,WBD,"Warner Bros. Discovery, Inc.",Officer,Chief Accounting Officer,NY,NEW YORK,10003,8.71,60738.0,D,4.0,Series A Common Stock,189.0,D,40.73184,-73.98915,2024Q1
0001628280-24-004545,2024-02-13,09-FEB-2024,4,SPR,"Spirit AeroSystems Holdings, Inc.",Officer,"SVP, Airbus Programs",KS,WICHITA,67210,29.12,24066.0,D,4.0,Class A Common Stock,1569.0,D,37.62944,-97.24604,2024Q1
0000874716-24-000065,2024-03-07,06-MAR-2024,4,IDXX,IDEXX LABORATORIES INC /DE,Officer,Executive Vice President,ME,WESTBROOK,4092,206.94,11466.23,D,4.0,Common Stock,755.0,A,43.69542,-70.35389,2024Q1
0001127602-24-011829,2024-04-02,01-APR-2024,4,CRM,"Salesforce, Inc.",Officer,President and COO,CA,SAN FRANCISCO,94105,186.51,24453.0,D,4.0,Common Stock,24453.0,A,37.79239,-122.39707,2024Q2
0001127602-24-009252,2024-03-08,06-MAR-2024,4,CCCS,CCC Intelligent Solutions Holdings Inc.,Officer,See Remarks,IL,CHICAGO,60607,11.85,59194.0,D,4.0,Common Stock,13169.0,D,41.87467,-87.65175,2024Q1
0001008886-24-000298,2024-09-17,13-SEP-2024,4,NNI,NELNET INC,Officer,President,NE,LINCOLN,68508,108.09,81115.0,D,4.0,Class A Common Stock,293.0,D,40.81831,-96.70621,2024Q3
0001225208-24-008324,2024-09-03,30-AUG-2024,4,BBY,BEST BUY CO INC,Officer,"SEVP, HR, Corp Affair & Canada",MN,RICHFIELD,55423,57.6,104081.0,D,4.0,Common Stock,27109.0,A,44.87663,-93.28144,2024Q3
0001562180-25-002252,2025-03-10,07-MAR-2025,4,TXNM,TXNM ENERGY INC,Officer,SVP & CFO,NM,ALBUQUERQUE,87102,47.78,21415.0,D,4.0,Common Stock,162.0,D,35.08116,-106.64636,2025Q1
0001771340-25-000002,2025-02-05,03-FEB-2025,4,TSLA,"Tesla, Inc.",Officer,Chief Financial Officer,TX,AUSTIN,78725,18.22,115964.75,D,4.0,Common Stock,7000.0,A,30.23554,-97.60859,2025Q1
0000028412-25-000122,2025-02-24,20-FEB-2025,4,CMA,COMERICA INC /NEW/,Officer,Sr EVP & Chief Banking Officer,TX,DALLAS,75201,67.01,67266.0,D,4.0,Common Stock,3788.0,D,32.78826,-96.79953,2025Q1
0001053507-24-000113,2024-08-06,02-AUG-2024,4,AMT,AMERICAN TOWER CORP /MA/,Officer,"EVP & President, LatAm & EMEA",MA,BOSTON,2116,230.0,61572.0,D,4.0,Common Stock,30.0,D,42.35105,-71.07638,2024Q3
0001690820-24-000252,2024-07-03,01-JUL-2024,4,CVNA,CARVANA CO.,Officer,Chief Brand Officer,AZ,TEMPE,85281,124.35,171788.0,D,4.0,Class A Common Stock,391.0,D,33.42805,-111.93157,2024Q3
0001967680-24-000063,2024-05-17,15-MAY-2024,4,VLTO,Veralto Corp,Officer,"SVP, CHRO",MA,WALTHAM,2451,98.9,11972.0,D,4.0,Common Stock,445.0,D,42.39859,-71.2573,2024Q2
0001127602-25-006151,2025-02-21,20-FEB-2025,4,AME,AMETEK INC/,Officer,CHIEF ADMINISTRATIVE OFFICER,PA,BERWYN,19312,188.78,39223.0,D,4.0,Common Stock,853.0,D,40.0309,-75.45083,2025Q1
0001415889-25-004934,2025-02-20,18-FEB-2025,4,TRAK,"ReposiTrak, Inc.","Director,Officer,TenPercentOwner",CHIEF EXECUTIVE OFFICER,UT,MURRAY,84107,21.58,301500.0,I,4.0,Common Stock,3000.0,D,40.65799,-111.88447,2025Q1
0001127602-24-027623,2024-11-19,15-NOV-2024,4,TRV,"TRAVELERS COMPANIES, INC.",Officer,Vice Chairman,MN,ST. PAUL,55102,140.85,251384.45,D,4.0,Common Stock,1000.0,A,44.93216,-93.12149,2024Q4
0001062993-24-010745,2024-05-20,16-MAY-2024,4,MTD,METTLER TOLEDO INTERNATIONAL INC/,Officer,Chief Financial Officer,OH,COLUMBUS,43240,397.95,5214.0,D,4.0,"Common Stock, par value $0.01 per share",300.0,A,40.14501,-82.98209,2024Q2
0001555280-25-000053,2025-02-10,06-FEB-2025,4,ZTS,Zoetis Inc.,Officer,Executive Vice President,NJ,PARSIPPANY,7054,174.12,794.0,D,4.0,Common Stock,82.0,D,40.85527,-74.40239,2025Q1
0000950170-24-134661,2024-12-09,05-DEC-2024,4,SERV,Serve Robotics Inc. /DE/,"Director,Officer",Chief Executive Officer,CA,REDWOOD CITY,94063,11.79,3346998.0,D,4.0,Common Stock,20000.0,D,37.49367,-122.20823,2024Q4
0000769397-25-000033,2025-03-28,27-MAR-2025,4,ADSK,"Autodesk, Inc.",Officer,SVP & Chief Accounting Officer,CA,SAN FRANCISCO,94105,267.29,3003.0,D,4.0,Common Stock,2452.0,D,37.79239,-122.39707,2025Q1
0001819848-25-000157,2025-02-12,10-FEB-2025,4,JOBY,"Joby Aviation, Inc.",Officer,See Remarks,CA,SANTA CRUZ,95060,7.5,30970.0,D,4.0,Common Stock,987.0,D,37.01352,-122.10176,2025Q1
0001199723-24-000020,2024-02-22,21-FEB-2024,4,CGNX,COGNEX CORP,Officer,"SVP, CFO",MA,NATICK,1760,39.6,27673.0,D,4.0,Common Stock,933.0,D,42.28436,-71.34966,2024Q1
0001413329-25-000043,2025-02-13,12-FEB-2025,4,PM,Philip Morris International Inc.,Officer,Vice President and Controller,CT,STAMFORD,6901,149.41,7596.0,I,4.0,Common Stock,3000.0,D,41.05349,-73.53845,2025Q1
0000073756-25-000048,2025-02-26,24-FEB-2025,4,OII,OCEANEERING INTERNATIONAL INC,Officer,"VP, Chief Accounting Officer",TX,HOUSTON,77086,22.09,14179.0,D,4.0,Common Stock,638.0,D,29.9186,-95.49064,2025Q1
0001739445-24-000098,2024-05-16,15-MAY-2024,4,ACA,"Arcosa, Inc.",Officer,Group President,TX,DALLAS,75201,88.42,25546.0,D,4.0,Common Stock,3959.0,D,32.78826,-96.79953,2024Q2
0001127602-24-007058,2024-02-27,26-FEB-2024,4,GGG,GRACO INC,Officer,"President, WW Powder Division",MN,MINNEAPOLIS,55413,90.02,18846.57,D,4.0,Common Stock,12652.0,D,44.99826,-93.24276,2024Q1
0001225208-24-006275,2024-05-21,20-MAY-2024,4,CMI,CUMMINS INC,Officer,VP & Pres. - Power Systems,IN,COLUMBUS,47201,284.84,6502.17,D,4.0,Common,1219.0,D,39.15074,-85.99432,2024Q2
0001415889-24-025121,2024-10-15,14-OCT-2024,4,UTHR,UNITED THERAPEUTICS Corp,Officer,CFO AND TREASURER,MD,SILVER SPRING,20910,355.88,5884.0,D,4.0,Common Stock,3400.0,D,39.00227,-77.03634,2024Q4
0001415889-24-014918,2024-05-30,28-MAY-2024,4,LYFT,"Lyft, Inc.",Officer,CHIEF ACCOUNTING OFFICER,CA,SAN FRANCISCO,94107,15.67,351853.0,D,4.0,Class A Common Stock,9083.0,D,37.76473,-122.39508,2024Q2
0001127602-24-003430,2024-02-05,02-FEB-2024,4,CRM,"Salesforce, Inc.","Director,Officer",Chair and CEO,CA,SAN FRANCISCO,94105,286.43,13598766.0,D,4.0,Common Stock,7000.0,D,37.79239,-122.39707,2024Q1
0000874501-24-000187,2024-08-08,07-AUG-2024,4,AMBC,AMBAC FINANCIAL GROUP INC,"Director,Officer",Chief Executive Officer,NY,NEW YORK,10007,10.64,526716.0,D,4.0,Common Stock,47.0,A,40.71387,-74.00792,2024Q3
0001451809-25-000003,2025-01-03,02-JAN-2025,4,SITM,SITIME Corp,Officer,See Remarks,CA,SANTA CLARA,95054,221.0,63068.0,D,4.0,Common Stock,2910.0,D,37.39308,-121.96483,2025Q1
0001127602-24-016964,2024-05-30,28-MAY-2024,4,KTB,"Kontoor Brands, Inc.","Director,Officer","Chair, President and CEO",NC,GREENSBORO,27401,71.52,318188.21,D,4.0,Common Stock,29212.0,D,36.06995,-79.76724,2024Q2
0001628280-24-042179,2024-10-03,01-OCT-2024,4,SQ,"Block, Inc.",Officer,Chief Accounting Officer,CA,OAKLAND,94612,67.0,90460.0,D,4.0,Class A Common Stock,500.0,D,37.80789,-122.2662,2024Q4
0001466258-24-000099,2024-02-12,08-FEB-2024,4,TT,Trane Technologies plc,Officer,VP & Chief Accounting Officer,NC,DAVIDSON,28036,269.94,4082.0,D,4.0,Ordinary Shares,56.0,D,35.48586,-80.79375,2024Q1
0001093557-24-000053,2024-03-14,12-MAR-2024,4,DXCM,DEXCOM INC,Officer,EVP Chief Human Resources,CA,SAN DIEGO,92121,131.5,86692.0,D,4.0,Common Stock,2437.0,D,32.8973,-117.20231,2024Q1
0000950170-24-025954,2024-03-05,01-MAR-2024,4,GNW,GENWORTH FINANCIAL INC,"Director,Officer",President and CEO; Director,VA,RICHMOND,23230,6.15,4561980.0,D,4.0,Class A Common Stock,1061346.0,D,37.587,-77.49153,2024Q1
0001415889-25-001533,2025-01-16,15-JAN-2025,4,DASH,"DoorDash, Inc.","Director,Officer,TenPercentOwner",CHIEF EXECUTIVE OFFICER,CA,SAN FRANCISCO,94107,7.16,1512.0,D,4.0,Class A Common Stock,12.0,A,37.76473,-122.39508,2025Q1
0001415889-24-012192,2024-05-03,01-MAY-2024,4,UTHR,UNITED THERAPEUTICS Corp,"Director,Officer",CHAIRPERSON & CEO,MD,SILVER SPRING,20910,247.36,2726.0,D,4.0,Common Stock,231.0,D,39.00227,-77.03634,2024Q2
0001062993-24-005863,2024-03-07,05-MAR-2024,4,WNEB,"Western New England Bancorp, Inc.",Officer,"SVP, General Counsel",MA,WESTFIELD,1085,8.29,10241.0,D,4.0,Common Stock,1209.0,D,42.15375,-72.76961,2024Q1
0001415889-24-012145,2024-05-03,01-MAY-2024,4,DASH,"DoorDash, Inc.",Officer,PRESIDENT AND COO,CA,SAN FRANCISCO,94107,128.44,910872.0,D,4.0,Class A Common Stock,7468.0,D,37.76473,-122.39508,2024Q2
0001127602-24-002693,2024-01-31,29-JAN-2024,4,FMBH,"FIRST MID BANCSHARES, INC.","Director,Officer",CEO,IL,MATTOON,61938,33.5,95718.01,D,4.0,Common Stock,6066.0,A,39.48004,-88.37571,2024Q1
0000904454-24-000560,2024-10-29,27-OCT-2024,4,MTSI,"MACOM Technology Solutions Holdings, Inc.","Director,Officer",President and CEO,MA,LOWELL,1851,119.71,66077.0,D,4.0,Common Stock,300.0,D,42.62915,-71.33674,2024Q4
0001452629-24-000002,2024-05-13,13-MAY-2024,4,HHS,HARTE HANKS INC,Officer,Chief Executive Officer,MA,CHELMSFORD,1824,7.0,22203.0,D,5.0,Common Stock,300.0,A,42.59156,-71.35553,2024Q2
0000040987-24-000079,2024-05-03,01-MAY-2024,4,GPC,GENUINE PARTS CO,Officer,"SVP, GC, and Corp. Secretary",GA,ATLANTA,30339,156.77,3056.0,D,4.0,Common Stock,120.0,D,33.86786,-84.46483,2024Q2
0001773751-24-000220,2024-07-09,05-JUL-2024,4,HIMS,"Hims & Hers Health, Inc.",Officer,Chief Operating Officer,CA,SAN FRANCISCO,94123,20.42,585800.0,D,4.0,Class A Common Stock,17625.0,D,37.80112,-122.43645,2024Q3
0000904454-24-000325,2024-05-15,10-MAY-2024,4,MTSI,"MACOM Technology Solutions Holdings, Inc.",Officer,"SVP, Operations",MA,LOWELL,1851,65.54,33079.0,D,5.0,Common Stock,252.0,A,42.62915,-71.33674,2024Q2
0000950170-24-090748,2024-08-05,01-AUG-2024,4,HEES,"H&E Equipment Services, Inc.",Officer,CFO & Secretary,LA,BATON ROUGE,70809,48.78,141299.0,D,4.0,"Common Stock, par value $0.01 per share",1125.0,D,30.39408,-91.07063,2024Q3
0001649739-24-000182,2024-06-18,15-JUN-2024,4,BAFN,BayFirst Financial Corp.,Officer,"President, COO",FL,ST. PETERSBURG,33701,11.27,9490.63,D,4.0,Common Stock,8.57,A,27.7705,-82.63566,2024Q2
0000950103-24-001896,2024-02-07,05-FEB-2024,4,META,"Meta Platforms, Inc.","Director,Officer,TenPercentOwner",COB and CEO,CA,MENLO PARK,94025,459.79,354734.0,I,4.0,Class A Common Stock,142.0,D,37.45087,-122.1829,2024Q1
0001225208-24-002953,2024-02-26,22-FEB-2024,4,KNF,Knife River Corp,Officer,Vice President & COO,ND,BISMARCK,58503,72.55,49010.0,D,4.0,Common Stock,3280.0,D,46.90587,-100.75262,2024Q1
0000900440-24-000121,2024-12-13,11-DEC-2024,4,VMI,VALMONT INDUSTRIES INC,Officer,"SVP, Human Resources",NE,OMAHA,68154,329.22,2250.0,D,4.0,Common Stock,51.0,D,41.26408,-96.11665,2024Q4
0001225208-24-009860,2024-11-12,11-NOV-2024,4,MAR,MARRIOTT INTERNATIONAL INC /MD/,Officer,EVP & CFO,MD,BETHESDA,20814,282.37,35016.85,D,4.0,Class A Common Stock,14980.0,A,39.00506,-77.10295,2024Q4
0001307748-24-000076,2024-07-29,26-JUL-2024,4,IVT,InvenTrust Properties Corp.,Officer,"EVP, COO, GC & Sec.",IL,DOWNERS GROVE,60515,24.76,61893.0,D,4.0,Common Stock,31.0,D,41.80991,-88.0247,2024Q3
0000950170-25-021534,2025-02-14,12-FEB-2025,4,ICE,"Intercontinental Exchange, Inc.",Officer,"President, NYSE Group",GA,ATLANTA,30328,166.56,59182.0,D,4.0,Common Stock,1338.0,D,33.93194,-84.38617,2025Q1
0000950170-24-105188,2024-09-10,26-AUG-2024,4,LQDT,LIQUIDITY SERVICES INC,Officer,"EVP, Chief Commercial Officer",MD,BETHESDA,20814,6.11,69254.0,I,4.0,Common Stock,10400.0,A,39.00506,-77.10295,2024Q3
0000950170-24-027310,2024-03-06,04-MAR-2024,4,HEES,"H&E Equipment Services, Inc.",Officer,President & COO,LA,BATON ROUGE,70809,58.79,65789.0,D,4.0,"Common Stock, par value $0.01 per share",16652.0,A,30.39408,-91.07063,2024Q1
0001562180-24-000853,2024-01-31,26-JAN-2024,4,MATV,"Mativ Holdings, Inc.","Director,Officer","President, CEO",GA,ALPHARETTA,30009,13.38,227914.0,D,4.0,Common Stock,2091.0,D,34.07711,-84.3029,2024Q1
0001127602-25-006026,2025-02-20,19-FEB-2025,4,MGM,MGM Resorts International,Officer,SVP & Chief Accounting Officer,NV,LAS VEGAS,89109,37.84,18301.0,D,4.0,Common Stock $.01 Par Value ND,6000.0,D,36.12603,-115.16327,2025Q1
0001585521-24-000243,2024-10-16,14-OCT-2024,4,ZM,"Zoom Video Communications, Inc.",Officer,Chief Operating Officer,CA,SAN JOSE,95113,70.28,2178.0,I,4.0,Class A Common Stock,1600.0,D,37.3339,-121.8905,2024Q4
0001628280-25-012028,2025-03-11,07-MAR-2025,4,VVX,"V2X, Inc.",Officer,Senior Vice President and CFO,VA,RESTON,20191,46.73,7570.0,D,4.0,"V2X, Inc. Common Stock",1497.0,D,38.93438,-77.35184,2025Q1
0001593968-24-000062,2024-01-05,03-JAN-2024,4,GLPI,"Gaming & Leisure Properties, Inc.",Officer,"COO, Gen Counsel & Sec",PA,WYOMISSING,19610,48.89,242414.0,D,4.0,Common Stock,26623.0,D,40.34015,-75.97612,2024Q1
0001549922-24-000034,2024-03-19,15-MAR-2024,4,SMLP,"Summit Midstream Partners, LP","Director,Officer",See remarks below.,TX,HOUSTON,77002,18.45,195673.0,D,4.0,Common Units,6077.0,D,29.75635,-95.36538,2024Q1
0001562180-25-001953,2025-03-04,01-MAR-2025,4,XYL,Xylem Inc.,Officer,SVP & Chief Financial Officer,DC,WASHINGTON,20003,129.78,28077.0,D,4.0,Common Stock,396.0,D,38.88193,-76.99033,2025Q1
0001225208-25-002852,2025-03-04,01-MAR-2025,4,CMI,CUMMINS INC,Officer,VP & Pres. - Accelera and Com,IN,COLUMBUS,47201,368.18,26824.01,D,4.0,Common,978.0,D,39.15074,-85.99432,2025Q1
0001467373-24-000297,2024-10-29,28-OCT-2024,4,ACN,Accenture plc,"Director,Officer",Chair and CEO,IL,CHICAGO,60661,363.85,12886.0,D,4.0,Class A ordinary shares,434.0,D,41.88291,-87.64409,2024Q4
0001035267-24-000224,2024-08-26,23-AUG-2024,4,ISRG,INTUITIVE SURGICAL INC,Officer,SVP & Chief Commercial and Mkt,CA,SUNNYVALE,94086,59.46,23945.0,D,4.0,Common Stock,459.0,A,37.37164,-122.02316,2024Q3
0001468327-24-000152,2024-05-06,02-MAY-2024,4,RENT,"Rent the Runway, Inc.",Officer,Chief Legal & Admin. Officer,NY,BROOKLYN,11201,12.16,32258.0,D,4.0,Class A Common Stock,267.0,D,40.69477,-73.99031,2024Q2
0001593968-24-001109,2024-09-03,29-AUG-2024,4,FFWM,First Foundation Inc.,Officer,Chief Financial Officer,TX,DALLAS,75201,6.94,3026.0,D,4.0,Common Stock,974.0,D,32.78826,-96.79953,2024Q3
0001127602-24-026811,2024-11-08,06-NOV-2024,4,ASB,ASSOCIATED BANC-CORP,Officer,Executive Vice President,WI,GREEN BAY,54301,28.14,107728.0,D,4.0,Common Stock $0.01 Par Value,32912.0,D,44.48193,-88.02029,2024Q4
0001782170-24-000231,2024-11-15,13-NOV-2024,4,RELY,"Remitly Global, Inc.",Officer,"EVP, Customer and Culture",WA,SEATTLE,98101,20.21,122522.0,D,4.0,Common Stock,8234.0,D,47.61119,-122.33454,2024Q4
0001562180-24-000999,2024-02-02,31-JAN-2024,4,EQBK,EQUITY BANCSHARES INC,"Director,Officer",Chief Executive Officer,KS,WICHITA,67207,32.85,143665.0,D,4.0,Class A Common Stock,7730.0,A,37.66567,-97.22923,2024Q1
0001321655-24-000227,2024-11-22,20-NOV-2024,4,PLTR,Palantir Technologies Inc.,Officer,See Remarks,CO,DENVER,80202,61.61,329608.0,D,4.0,Class A Common Stock,21922.0,D,39.75156,-104.99768,2024Q4
0001077428-24-000072,2024-02-28,26-FEB-2024,4,TCBI,TEXAS CAPITAL BANCSHARES INC/TX,Officer,Chief Financial Officer,TX,DALLAS,75201,58.06,10850.0,D,4.0,Common Stock,92.0,D,32.78826,-96.79953,2024Q1
0000084839-25-000003,2025-01-24,22-JAN-2025,4,ROL,ROLLINS INC,"Director,Officer",PRESIDENT & CEO,GA,ATLANTA,30324,48.46,287727.0,D,4.0,Common Stock,944.0,D,33.8196,-84.3572,2025Q1
0001562180-24-007300,2024-10-11,10-OCT-2024,4,TEAM,Atlassian Corp,"Director,Officer,TenPercentOwner","CEO, Co-Founder",CA,SAN FRANCISCO,94104,182.33,449055.0,I,4.0,Class A Common Stock,2100.0,D,37.79144,-122.40211,2024Q4
0001795887-24-000004,2024-03-28,27-MAR-2024,4,KEQU,KEWAUNEE SCIENTIFIC CORP /DE/,Officer,VP-Information Technology,NC,STATESVILLE,28677,33.1,8775.0,D,4.0,Common Stock,400.0,D,35.73743,-80.92272,2024Q1
0001127602-24-029988,2024-12-23,22-DEC-2024,4,CRM,"Salesforce, Inc.",Officer,Pres/Chief Engineering Officer,CA,SAN FRANCISCO,94105,339.56,87775.0,D,4.0,Common Stock,45653.0,D,37.79239,-122.39707,2024Q4
0001562088-24-000291,2024-12-16,13-DEC-2024,4,DUOL,"Duolingo, Inc.","Director,Officer,TenPercentOwner","Chief Tech Officer, Co-Founder",PA,PITTSBURGH,15206,342.63,1172.0,D,4.0,Class A Common Stock,2000.0,D,40.47244,-79.91324,2024Q4
0001681622-24-000101,2024-12-12,10-DEC-2024,4,VREX,Varex Imaging Corp,Officer,"SVP and GM, X-Ray Sources",UT,SALT LAKE CITY,84104,15.45,65241.0,D,4.0,Common Stock,2864.0,D,40.74846,-111.98286,2024Q4
0000089800-25-000047,2025-02-20,18-FEB-2025,4,SHW,SHERWIN WILLIAMS CO,Officer,SVP - Finance & CFO,OH,CLEVELAND,44115,354.25,68258.0,D,4.0,Common Stock,3149.0,D,41.49211,-81.66999,2025Q1
0001835681-24-000106,2024-09-19,18-SEP-2024,4,PWSC,"POWERSCHOOL HOLDINGS, INC.",Officer,Chief Technology Officer,CA,FOLSOM,95630,22.77,386781.0,D,4.0,Class A Common Stock,2236.0,D,38.66558,-121.141,2024Q3
0001209191-24-005549,2024-05-06,02-MAY-2024,4,HCA,"HCA Healthcare, Inc.",Officer,SVP-Payer Contracting & Align.,TN,NASHVILLE,37203,312.0,22365.0,D,4.0,Common Stock,973.0,D,36.14937,-86.78986,2024Q2
0001415889-24-011773,2024-04-30,26-APR-2024,4,PI,IMPINJ INC,"Director,Officer",CHIEF EXECUTIVE OFFICER,WA,SEATTLE,98109,150.78,286493.0,D,4.0,Common Stock,1940.0,D,47.63128,-122.34486,2024Q2
0001415889-25-006431,2025-03-04,25-FEB-2025,4,SAFT,SAFETY INSURANCE GROUP INC,Officer,VP - CLAIMS,MA,BOSTON,2110,75.4,39173.0,D,4.0,Common Stock,139.0,D,42.35797,-71.05189,2025Q1
0001964333-24-000072,2024-03-13,29-FEB-2024,4/A,BHRB,Burke & Herbert Financial Services Corp.,Officer,"EVP, Operations",VA,ALEXANDRIA,22314,43.11,185.0,D,5.0,Common Stock,185.0,A,38.80732,-77.0563,2024Q1
0001127602-24-004606,2024-02-12,08-FEB-2024,4,AVNT,AVIENT CORP,Officer,SVP & Chief Financial Officer,OH,AVON LAKE,44012,37.01,27694.0,D,4.0,Common Stock,3374.0,D,41.49443,-82.01594,2024Q1
0001225208-24-002799,2024-02-22,20-FEB-2024,4,MAR,MARRIOTT INTERNATIONAL INC /MD/,Officer,EVP & CFO,MD,BETHESDA,20814,242.94,71256.0,D,4.0,Class A Common Stock,24189.0,D,39.00506,-77.10295,2024Q1
0001225208-24-004464,2024-03-22,20-MAR-2024,4,VSCO,Victoria's Secret & Co.,"Director,Officer",CEO,OH,REYNOLDSBURG,43068,19.56,453990.0,D,4.0,Common Stock,35684.0,D,39.95667,-82.78468,2024Q1
0001065088-24-000171,2024-09-17,15-SEP-2024,4,EBAY,EBAY INC,"Director,Officer",President and CEO,CA,SAN JOSE,95125,63.44,580219.0,D,4.0,Common Stock,3054.0,D,37.29554,-121.89408,2024Q3
0001967680-24-000113,2024-07-31,29-JUL-2024,4,VLTO,Veralto Corp,Officer,"SVP, PQI",MA,WALTHAM,2451,105.89,31045.0,D,4.0,Common Stock,3000.0,D,42.39859,-71.2573,2024Q3
0001562180-24-002999,2024-03-26,22-MAR-2024,4,HIPO,Hippo Holdings Inc.,Officer,Chief Revenue Officer,CA,PALO ALTO,94301,17.2,149017.0,D,4.0,Common Stock,3333.0,D,37.44424,-122.14992,2024Q1
0001415889-25-005141,2025-02-21,19-FEB-2025,4,ECL,ECOLAB INC.,Officer,EVP & GM - GLOBAL PEST,MN,ST. PAUL,55102,265.19,85.22,D,4.0,Common Stock,80.78,D,44.93216,-93.12149,2025Q1
0001562088-24-000021,2024-02-08,06-FEB-2024,4,DUOL,"Duolingo, Inc.",Officer,Chief Engineering Officer,PA,PITTSBURGH,15206,183.3,129188.0,D,4.0,Class A Common Stock,200.0,D,40.47244,-79.91324,2024Q1
0001628280-24-048977,2024-11-22,19-NOV-2024,4,HBT,"HBT Financial, Inc.","Director,Officer,TenPercentOwner",Executive Chairman,IL,BLOOMINGTON,61704,23.86,91470.0,I,4.0,"Common Stock, $0.01 par value",2200.0,D,40.46951,-88.94281,2024Q4
0001140361-25-004916,2025-02-14,12-FEB-2025,4,BCPC,BALCHEM CORP,Officer,SVP & Chief HR Officer,NJ,MONTVALE,7645,163.14,9123.0,D,4.0,Common Stock,1156.0,D,41.05293,-74.04985,2025Q1
0001576427-25-000014,2025-02-13,11-FEB-2025,4,CRTO,Criteo S.A.,"Director,Officer",Chief Executive Officer,NY,NEW YORK,10016,44.51,502052.0,D,4.0,Ordinary Shares,7481.0,D,40.74515,-73.97807,2025Q1
0001415889-25-005096,2025-02-21,19-FEB-2025,4,CBOE,"Cboe Global Markets, Inc.",Officer,"EVP, DATA VANTAGE",IL,CHICAGO,60607,210.25,1590.0,D,4.0,Common Stock,385.0,D,41.87467,-87.65175,2025Q1
0001735276-24-000077,2024-08-02,01-AUG-2024,4,ALNY,"ALNYLAM PHARMACEUTICALS, INC.","Director,Officer",Chief Executive Officer,MA,CAMBRIDGE,2142,270.0,73441.0,D,4.0,Common Stock,15148.0,D,42.36295,-71.08189,2024Q3
0001493152-24-009126,2024-03-07,05-MAR-2024,4,GLSI,"Greenwich LifeSciences, Inc.","Director,Officer,TenPercentOwner",CEO and CFO,TX,STAFFORD,77477,12.49,5343777.0,D,4.0,Common Stock,30500.0,A,29.62625,-95.56718,2024Q1
0001114927-24-000020,2024-02-16,15-FEB-2024,4,FNRN,FIRST NORTHERN COMMUNITY BANCORP,"Director,Officer",President/CEO/Director,CA,DIXON,95620,8.7,95390.0,D,4.0,Common Stock,18390.0,A,38.40599,-121.75689,2024Q1
0001127602-24-021533,2024-08-02,31-JUL-2024,4,AVY,Avery Dennison Corp,"Director,Officer",Executive Chairman,OH,MENTOR,44060,217.23,311389.0,D,4.0,Common Stock,1350.0,D,41.67742,-81.32806,2024Q3
0000793952-25-000055,2025-02-11,09-FEB-2025,4,HOG,"HARLEY-DAVIDSON, INC.",Officer,Chief Human Resources Officer,WI,MILWAUKEE,53208,26.82,12729.0,D,4.0,Common Stock,505.0,D,43.04556,-87.96556,2025Q1
0001127602-24-013940,2024-05-02,30-APR-2024,4,INTC,INTEL CORP,"Director,Officer",CEO,CA,SANTA CLARA,95054,30.8,107290.0,D,4.0,Common Stock,3362.0,D,37.39308,-121.96483,2024Q2
0001127602-24-005792,2024-02-20,16-FEB-2024,4,IT,GARTNER INC,Officer,"EVP, Research & Advisory",CT,STAMFORD,6902,453.0,12269.0,D,4.0,Common Stock,682.0,D,41.05949,-73.54751,2024Q1
0001127602-24-016175,2024-05-21,17-MAY-2024,4,HAE,HAEMONETICS CORP,Officer,"President, Global Hospital",MA,BOSTON,2110,95.73,15324.0,D,4.0,Common Stock,284.0,D,42.35797,-71.05189,2024Q2
0000950103-24-002473,2024-02-20,16-FEB-2024,4,META,"Meta Platforms, Inc.","Director,Officer,TenPercentOwner",COB and CEO,CA,MENLO PARK,94025,473.05,17569.0,I,4.0,Class A Common Stock,7585.0,D,37.45087,-122.1829,2024Q1
0001415889-24-006186,2024-03-01,28-FEB-2024,4,BILL,"BILL Holdings, Inc.",Officer,"SVP, FINANCE & ACCOUNTING",CA,SAN JOSE,95002,63.76,6013.0,D,4.0,Common Stock,938.0,D,37.44075,-122.00047,2024Q1
0000950170-24-029349,2024-03-11,08-MAR-2024,4,URI,"UNITED RENTALS, INC.",Officer,"EVP, Chief Operating Officer",CT,STAMFORD,6902,676.14,8611.0,D,4.0,Common Stock,118.0,D,41.05949,-73.54751,2024Q1
0001415889-24-025173,2024-10-16,14-OCT-2024,4,FAST,FASTENAL CO,Officer,CAO/CONTROLLER/TREASURER,MN,WINONA,55987,38.0,15201.0,D,4.0,Common Stock,10105.0,A,43.98469,-91.63143,2024Q4
0001582777-24-000003,2024-05-17,15-MAY-2024,4,SNPO,Snap One Holdings Corp.,Officer,Chief Operations Officer,NC,CHARLOTTE,28273,10.63,200065.0,D,4.0,Common Stock,642.0,D,35.12624,-80.94469,2024Q2
0001560327-24-000085,2024-07-05,15-FEB-2024,4/A,RPD,"Rapid7, Inc.",Officer,Chief Operating Officer,MA,BOSTON,2114,60.32,288260.0,D,4.0,COMMON STOCK,11299.0,D,42.36337,-71.06686,2024Q3
0001903601-24-000039,2024-03-19,15-MAR-2024,4,WEST,Westrock Coffee Co,Officer,"GROUP PRESIDENT, OPERATIONS",AR,LITTLE ROCK,72212,9.6,446748.0,D,4.0,COMMON STOCK,13693.0,D,34.78498,-92.4141,2024Q1
0001214659-24-016341,2024-09-11,09-SEP-2024,4,PLMR,"Palomar Holdings, Inc.",Officer,Chief Financial Officer,CA,LA JOLLA,92037,95.53,19590.0,D,4.0,Common Stock,656.0,D,32.85257,-117.25104,2024Q3
0001209191-24-004710,2024-03-08,08-MAR-2024,4,GOOG,Alphabet Inc.,Officer,"President, CFO",CA,MOUNTAIN VIEW,94043,138.28,1777206.0,D,4.0,Class C Capital Stock,17046.0,D,37.41188,-122.06892,2024Q1
0001562180-24-005780,2024-07-17,16-JUL-2024,4,CWAN,"Clearwater Analytics Holdings, Inc.",Officer,Chief Revenue Officer,ID,BOISE,83702,19.5,4844.0,D,4.0,Class A Common Stock,3890.0,D,43.66821,-116.16493,2024Q3
0001877322-24-000025,2024-02-26,22-FEB-2024,4,ESAB,ESAB Corp,"Director,Officer",President and CEO,MD,NORTH BETHESDA,20852,93.82,46996.0,D,4.0,"Common stock, par value $0.001",1213.0,D,39.05134,-77.12507,2024Q1
0001437749-25-006423,2025-03-06,05-MAR-2025,4,FBLA,"FB Bancorp, Inc. /MD/",Officer,Chief Operating Officer,LA,NEW ORLEANS,70130,11.34,261.0,D,4.0,Common Stock,261.0,A,29.93671,-90.06949,2025Q1
0001214659-24-000204,2024-01-03,01-JAN-2024,4,PLMR,"Palomar Holdings, Inc.",Officer,President,CA,LA JOLLA,92037,54.51,72129.0,D,4.0,Common Stock (PSUs),231.0,D,32.85257,-117.25104,2024Q1
0000950170-24-105121,2024-09-10,06-SEP-2024,4,MFIN,MEDALLION FINANCIAL CORP,Officer,Chief Financial Officer,NY,NEW YORK,10022,7.52,70976.0,D,4.0,Common Stock,2000.0,A,40.75856,-73.96787,2024Q3
0001127602-24-021712,2024-08-06,02-AUG-2024,4,AVY,Avery Dennison Corp,"Director,Officer",Executive Chairman,OH,MENTOR,44060,210.61,311114.0,D,4.0,Common Stock,472.0,D,41.67742,-81.32806,2024Q3
0001447362-24-000163,2024-10-16,14-OCT-2024,4,CSTL,CASTLE BIOSCIENCES INC,"Director,Officer",Pres. & Chief Exec. Officer,TX,FRIENDSWOOD,77546,32.27,91664.0,D,4.0,Common Stock,1972.0,D,29.5132,-95.19352,2024Q4
0001127602-24-022363,2024-08-16,14-AUG-2024,4,AVY,Avery Dennison Corp,"Director,Officer",Executive Chairman,OH,MENTOR,44060,73.96,307114.0,D,4.0,Common Stock,3000.0,A,41.67742,-81.32806,2024Q3
0001283699-25-000032,2025-02-19,15-FEB-2025,4,TMUS,"T-Mobile US, Inc.",Officer,"President, Business Group",WA,BELLEVUE,98006,270.0,110662.11,D,4.0,Common Stock,9215.0,D,47.55772,-122.14957,2025Q1
0001520006-24-000035,2024-02-08,06-FEB-2024,4,MTDR,Matador Resources Co,Officer,"EVP, Reservoir Engineering",TX,DALLAS,75240,29.68,109076.0,D,4.0,Common Stock,4548.0,A,32.93194,-96.78924,2024Q1
0001805124-24-000069,2024-05-10,08-MAY-2024,4,DOOR,MASONITE INTERNATIONAL CORP,Officer,See Remarks,FL,TAMPA,33605,132.62,3687.0,D,4.0,Common Shares,1230.0,D,27.95121,-82.42924,2024Q2
0000950170-24-014383,2024-02-13,09-FEB-2024,4,ARCH,"ARCH RESOURCES, INC.",Officer,Sr. VP - Strategy & Public Pol,MO,ST. LOUIS,63141,169.64,22200.0,D,4.0,Common Stock,434.0,D,38.65751,-90.45904,2024Q1
0001640147-25-000029,2025-03-12,10-MAR-2025,4,SNOW,Snowflake Inc.,Officer,"EVP, Product Management",MT,BOZEMAN,59715,158.91,594552.0,D,4.0,Class A Common Stock,423.0,D,45.6928,-110.9065,2025Q1
0001045810-24-000170,2024-06-21,19-JUN-2024,4,NVDA,NVIDIA CORP,"Director,Officer",President and CEO,CA,SANTA CLARA,95051,127.54,80719629.0,D,4.0,Common Stock,23763.0,D,37.3483,-121.98444,2024Q2
0001715605-25-000003,2025-02-24,20-FEB-2025,4,ABCB,Ameris Bancorp,Officer,Chief Risk Officer,GA,ATLANTA,30305,63.46,42983.0,D,4.0,Common Stock,645.0,D,33.83518,-84.38931,2025Q1
0001321732-24-000046,2024-04-03,01-APR-2024,4,PEN,Penumbra Inc,Officer,"EVP, Gen. Counsel & Secretary",CA,ALAMEDA,94502,219.14,64295.0,D,4.0,Common Stock,24.0,D,37.73686,-122.24114,2024Q2
0001601712-24-000204,2024-05-17,15-MAY-2024,4,SYF,Synchrony Financial,Officer,See remarks,CT,STAMFORD,6902,44.14,51044.0,D,4.0,Dividend Equivalent Unit,287.0,A,41.05949,-73.54751,2024Q2
0001628280-25-004101,2025-02-05,03-FEB-2025,4,PLXS,PLEXUS CORP,"Director,Officer",President & CEO,WI,NEENAH,54956,136.96,86932.0,D,4.0,"Common Stock, $.01 par value",1500.0,D,44.18444,-88.52778,2025Q1
0000950170-24-089289,2024-08-01,31-JUL-2024,4,PAYC,"Paycom Software, Inc.","Director,Officer,TenPercentOwner","CEO, President and Chairman",OK,OKLAHOMA CITY,73142,166.94,3573013.0,I,4.0,Common Stock,486.0,D,35.60937,-97.63895,2024Q3
0000740260-25-000046,2025-02-03,01-FEB-2025,4,VTR,"Ventas, Inc.",Officer,EVP and CFO,IL,CHICAGO,60654,60.42,171884.0,D,4.0,Common Stock,3244.0,D,41.89209,-87.63673,2025Q1
0001104659-25-000765,2025-01-03,31-DEC-2024,4,SANM,SANMINA CORP,Officer,"EVP, Global Human Resources",CA,SAN JOSE,95134,75.67,51449.0,D,4.0,Common Stock,21600.0,A,37.43003,-121.94528,2025Q1
0001415889-24-003158,2024-02-09,07-FEB-2024,4,RBCAA,REPUBLIC BANCORP INC /KY/,Officer,"EVP, MG DIR COMMUNITY LENDING",KY,LOUISVILLE,40202,48.13,1104.01,I,4.0,Class A Common Stock,103.35,A,38.25288,-85.75205,2024Q1
0001562180-24-006441,2024-08-21,19-AUG-2024,4,BFAM,BRIGHT HORIZONS FAMILY SOLUTIONS INC.,"Director,Officer",CEO & President,MA,NEWTON,2459,94.03,139653.0,D,4.0,Common Stock,17080.0,A,42.31515,-71.19174,2024Q3
0001562180-24-001408,2024-02-20,16-FEB-2024,4,TROW,PRICE T ROWE GROUP INC,Officer,Vice President,MD,BALTIMORE,21202,108.05,109193.02,D,5.0,Common Stock,142.01,A,39.29705,-76.60747,2024Q1
0001127602-24-022434,2024-08-19,16-AUG-2024,4,LII,LENNOX INTERNATIONAL INC,Officer,"EVP, Chief HR Officer",TX,RICHARDSON,75080,572.3,32049.0,D,4.0,"Common Stock, Par Value $0.01 Per Share",89.0,D,32.97382,-96.7416,2024Q3
0001062993-25-003752,2025-02-26,24-FEB-2025,4,KBR,"KBR, INC.",Officer,"EVP, Gen. Counsel & Corp. Sec.",TX,HOUSTON,77002,50.17,18113.02,D,4.0,Common Stock,762.0,D,29.75635,-95.36538,2025Q1
0001225208-24-009703,2024-11-07,05-NOV-2024,4,WM,WASTE MANAGEMENT INC,Officer,"Pres, Chief Executive Officer",TX,HOUSTON,77002,215.0,206975.0,D,4.0,Common Stock,35495.0,D,29.75635,-95.36538,2024Q4
0001104485-24-000101,2024-04-09,09-APR-2024,4,N O G,"NORTHERN OIL & GAS, INC.",Officer,Chief Technical Officer,MN,MINNETONKA,55343,42.0,73753.0,D,4.0,Common Stock,3150.0,D,44.91433,-93.41568,2024Q2
0001415889-24-028116,2024-12-03,29-NOV-2024,4,DGII,DIGI INTERNATIONAL INC,Officer,"VP, CORP. DEV, GC & CORP. SEC.",MN,HOPKINS,55343,33.22,86667.5,D,4.0,Common Stock,878.0,D,44.91433,-93.41568,2024Q4
0001562180-24-001152,2024-02-07,05-FEB-2024,4,SAIA,SAIA INC,Officer,"VP Information Technology, CIO",GA,JOHNS CREEK,30097,66.03,11352.0,D,4.0,Common Stock,790.0,A,34.0271,-84.14702,2024Q1
0000898174-24-000043,2024-02-09,07-FEB-2024,4,RGA,REINSURANCE GROUP OF AMERICA INC,Officer,"EVP, Global Chief Risk Officer",MO,CHESTERFIELD,63017,90.06,7524.0,D,4.0,Common Stock,888.0,A,38.65143,-90.53722,2024Q1
0000921638-24-000024,2024-01-03,02-JAN-2024,4,SSRM,SSR MINING INC.,Officer,Chief Legal & Admin Officer,CO,DENVER,80237,10.71,139002.0,D,4.0,Common Shares,1711.0,D,39.63996,-104.90178,2024Q1
0001046025-24-000062,2024-03-18,15-MAR-2024,4,HFWA,HERITAGE FINANCIAL CORP /WA/,"Director,Officer",CEO,WA,OLYMPIA,98501,18.38,68037.0,D,4.0,Common Stock,1578.0,D,46.9783,-122.86989,2024Q1
0001240085-24-000059,2024-12-02,27-NOV-2024,4,TYL,TYLER TECHNOLOGIES INC,"Director,Officer",President and CEO,TX,PLANO,75024,632.66,75000.0,D,4.0,Common Stock,689.0,D,33.07712,-96.80826,2024Q4
0000950103-24-001748,2024-02-05,01-FEB-2024,4,META,"Meta Platforms, Inc.","Director,Officer,TenPercentOwner",COB and CEO,CA,MENLO PARK,94025,398.42,358149.0,I,4.0,Class A Common Stock,550.0,D,37.45087,-122.1829,2024Q1
0001713683-24-000093,2024-06-21,18-JUN-2024,4,ZS,"Zscaler, Inc.",Officer,Chief Financial Officer,CA,SAN JOSE,95134,177.81,240507.0,D,4.0,Common Stock,851.0,D,37.43003,-121.94528,2024Q2
0001690820-24-000371,2024-11-12,11-NOV-2024,4,CVNA,CARVANA CO.,Officer,Chief Product Officer,AZ,TEMPE,85281,250.16,236267.0,D,4.0,Class A Common Stock,11000.0,D,33.42805,-111.93157,2024Q4
0001430723-25-000001,2025-01-29,27-JAN-2025,4,SFBS,"ServisFirst Bancshares, Inc.",Officer,"COO, EVP",AL,BIRMINGHAM,35209,91.25,304502.0,D,4.0,Common Stock,201.0,D,33.46507,-86.81107,2025Q1
0001562180-25-001408,2025-02-20,19-FEB-2025,4,TEAM,Atlassian Corp,Officer,President,CA,SAN FRANCISCO,94104,313.74,200560.0,D,4.0,Class A Common Stock,14.0,D,37.79144,-122.40211,2025Q1
0001415889-24-005852,2024-02-29,27-FEB-2024,4,SKWD,"Skyward Specialty Insurance Group, Inc.",Officer,CHIEF INFORMATION OFFICER,TX,HOUSTON,77024,36.47,15486.0,D,4.0,Common Stock,999.0,D,29.77073,-95.50869,2024Q1
0001628280-24-025886,2024-05-30,28-MAY-2024,4,INSM,INSMED Inc,Officer,Chief Financial Officer,NJ,BRIDGEWATER,8807,17.07,358769.0,D,4.0,Common Stock,32156.0,A,40.59241,-74.6202,2024Q2
0001415889-25-008281,2025-03-17,26-MAR-2024,4,WGS,GeneDx Holdings Corp.,Officer,CHIEF FINANCIAL OFFICER,CT,STAMFORD,6902,96.71,8492.0,D,4.0,Class A Common Stock,3749.0,D,41.05949,-73.54751,2025Q1
0001716139-24-000002,2024-02-21,16-FEB-2024,4,ENTG,ENTEGRIS INC,Officer,"SVP, Global Human Resources",MA,BILLERICA,1821,31.1,51591.0,D,4.0,Common Stock,8660.0,A,42.54999,-71.25206,2024Q1
0001437749-24-018510,2024-05-28,23-MAY-2024,4,GNRC,GENERAC HOLDINGS INC.,Officer,Chief Technical Officer,WI,WAUKESHA,53189,43.88,60272.0,D,4.0,Common Stock,18490.0,A,42.95216,-88.28068,2024Q2
0001062993-24-013511,2024-07-08,05-JUL-2024,4,FL,"FOOT LOCKER, INC.",Officer,EVP and General Counsel,NY,NEW YORK,10001,23.1,25121.0,D,4.0,Common Stock,4015.0,D,40.75064,-73.99728,2024Q3
0001628280-25-001856,2025-01-17,17-JAN-2025,4,MS,MORGAN STANLEY,Officer,Co-President,NY,NEW YORK,10036,135.81,357827.64,D,4.0,Common Stock,27032.0,D,40.75976,-73.99064,2025Q1
0001086222-25-000134,2025-03-17,17-MAR-2025,4,AKAM,AKAMAI TECHNOLOGIES INC,Officer,EVP and CHRO,MA,CAMBRIDGE,2142,82.19,16517.0,D,4.0,Common Stock,9500.0,D,42.36295,-71.08189,2025Q1
0000950170-24-112353,2024-10-03,01-OCT-2024,4,BURL,"Burlington Stores, Inc.",Officer,Group President and CMO,NJ,BURLINGTON,8016,260.35,60968.0,D,4.0,Common Stock,51.0,D,40.06926,-74.83198,2024Q4
0000037808-25-000064,2025-02-20,18-FEB-2025,4,FNB,FNB CORP/PA/,Officer,Chief Credit Officer,PA,PITTSBURGH,15219,15.44,271348.52,D,4.0,Common Stock,13705.0,A,40.44304,-79.98443,2025Q1
0001771515-25-000051,2025-03-06,04-MAR-2025,4,GO,Grocery Outlet Holding Corp.,Officer,See Remarks,CA,EMERYVILLE,94608,11.34,39059.0,D,4.0,Common Stock,5260.0,D,37.83611,-122.28621,2025Q1
0001562180-25-001989,2025-03-04,03-MAR-2025,4,UTHR,UNITED THERAPEUTICS Corp,Officer,PRESIDENT AND COO,MD,SILVER SPRING,20910,315.49,1078.0,I,4.0,Common Stock,122.0,D,39.00227,-77.03634,2025Q1
0001174947-24-000507,2024-04-03,01-APR-2024,4,MSEX,MIDDLESEX WATER CO,Officer,Sr. VP & CFO,NJ,ISELIN,8830,52.5,8911.0,D,4.0,Common Stock (Restricted Stock Book Entry),2848.0,D,40.56964,-74.31719,2024Q2
0001610717-24-000349,2024-06-20,17-JUN-2024,4,RVMD,"Revolution Medicines, Inc.",Officer,See Remarks,CA,REDWOOD CITY,94063,37.39,269073.0,D,4.0,Common Stock,3349.0,D,37.49367,-122.20823,2024Q2
0001225208-24-002887,2024-02-26,22-FEB-2024,4,WM,WASTE MANAGEMENT INC,Officer,SVP & Chief Sustainability Off,TX,HOUSTON,77002,204.23,55590.58,D,4.0,Common Stock,1782.0,D,29.75635,-95.36538,2024Q1
0001610717-24-000091,2024-02-26,22-FEB-2024,4,TXG,"10x Genomics, Inc.","Director,Officer",See Remarks,CA,PLEASANTON,94588,46.34,283059.0,D,4.0,Class A Common Stock,2613.0,D,37.73801,-121.88178,2024Q1
0001415889-24-012466,2024-05-07,06-MAY-2024,4,UTHR,UNITED THERAPEUTICS Corp,Officer,PRESIDENT AND COO,MD,SILVER SPRING,20910,163.3,34777.0,D,4.0,Common Stock,32200.0,A,39.00227,-77.03634,2024Q2
0001213900-24-094520,2024-11-05,01-NOV-2024,4,TRIN,Trinity Capital Inc.,"Director,Officer","CEO, President and CIO",AZ,PHOENIX,85004,13.39,964632.0,D,4.0,Common Stock,200.0,A,33.45159,-112.06988,2024Q4
0000799292-24-000072,2024-08-02,01-AUG-2024,4,MHO,"M/I HOMES, INC.",Officer,Principal Accounting Officer,OH,COLUMBUS,43219,47.59,3303.0,D,4.0,Common Shares,500.0,A,40.00774,-82.92233,2024Q3
0000101984-25-000025,2025-02-11,07-FEB-2025,4,UEIC,UNIVERSAL ELECTRONICS INC,Officer,Sr.VP Corp Planning & Strategy,AZ,SCOTTSDALE,85254,10.04,33867.0,D,4.0,Common Stock,3772.0,D,33.61474,-111.95176,2025Q1
0001127602-24-011956,2024-04-02,01-APR-2024,4,SASR,SANDY SPRING BANCORP INC,Officer,"EVP, Chief Human Resources Off",MD,OLNEY,20832,23.18,6606.24,D,4.0,Common Stock,941.0,D,39.15134,-77.07331,2024Q2
0001478242-25-000036,2025-02-12,10-FEB-2025,4,IQV,IQVIA HOLDINGS INC.,"Director,Officer",See Remarks,NC,DURHAM,27703,65.16,837083.0,D,4.0,Common Stock,40000.0,A,35.96299,-78.80452,2025Q1
0001387467-24-000047,2024-04-22,22-APR-2024,4,AOSL,ALPHA & OMEGA SEMICONDUCTOR Ltd,Officer,EVP-WW Sales & Bus Development,CA,SUNNYVALE,94085,19.57,130082.0,D,4.0,Common Share,1956.0,D,37.38862,-122.01793,2024Q2
0001562180-25-000900,2025-02-04,31-JAN-2025,4,CUZ,COUSINS PROPERTIES INC,Officer,Executive Vice President,GA,ATLANTA,30326,30.53,56615.0,D,4.0,Common Stock,592.0,D,33.84957,-84.36342,2025Q1
0001104659-25-001480,2025-01-06,02-JAN-2025,4,CF,"CF Industries Holdings, Inc.",Officer,"EVP,Sales,MktDev&Supply Chain",IL,NORTHBROOK,60062,88.51,110051.0,D,4.0,"Common stock, par value $0.01 per share",2726.0,D,42.12663,-87.84235,2025Q1
0001209191-24-001913,2024-01-19,17-JAN-2024,4,CRBG,"Corebridge Financial, Inc.","Director,Officer",Chief Executive Officer,TX,HOUSTON,77019,24.17,233290.0,D,4.0,Common Stock,24432.0,D,29.75318,-95.41212,2024Q1
0000950103-25-002981,2025-03-04,28-FEB-2025,4,META,"Meta Platforms, Inc.",Officer,Chief Product Officer,CA,MENLO PARK,94025,653.84,295950.0,I,4.0,Class A Common Stock,4915.0,D,37.45087,-122.1829,2025Q1
0001029142-25-000020,2025-02-12,10-FEB-2025,4,DVAX,DYNAVAX TECHNOLOGIES CORP,Officer,SVP and CMO,CA,EMERYVILLE,94608,13.2,61236.0,D,4.0,Common Stock,1781.0,D,37.83611,-122.28621,2025Q1
0000950170-24-005557,2024-01-18,16-JAN-2024,4,ITCI,"Intra-Cellular Therapies, Inc.","Director,Officer","Chairman, President & CEO",NY,NEW YORK,10016,66.0,1067760.0,D,4.0,Common Stock,30633.0,D,40.74515,-73.97807,2024Q1
0000950170-24-005389,2024-01-18,16-JAN-2024,4,DCPH,"Deciphera Pharmaceuticals, Inc.",Officer,Chief Financial Officer,MA,WALTHAM,2451,14.47,66085.0,D,4.0,Common Stock,2435.0,D,42.39859,-71.2573,2024Q1
0001209191-24-001352,2024-01-10,10-JAN-2024,4,SO,SOUTHERN CO,Officer,"CEO, Southern Nuclear",GA,ATLANTA,30308,71.99,101284.16,D,4.0,Southern Company Common Stock,5000.0,D,33.77094,-84.37773,2024Q1
0001415889-24-019708,2024-07-17,15-JUL-2024,4,NONE,Sterling Real Estate Trust,Officer,CHIEF INVESTMENT OFFICER,ND,FARGO,58103,21.85,239.03,I,4.0,Common Shares,3.1,A,46.85639,-96.82234,2024Q3
0001601712-24-000113,2024-03-05,01-MAR-2024,4,SYF,Synchrony Financial,Officer,See remarks,CT,STAMFORD,6902,41.05,47300.0,D,4.0,Common Stock,18088.0,A,41.05949,-73.54751,2024Q1
0001213900-24-024053,2024-03-19,15-MAR-2024,4,RILY,"B. Riley Financial, Inc.",Officer,President,CA,LOS ANGELES,90025,17.56,229521.0,D,4.0,Common Stock,2068.0,D,34.04551,-118.44583,2024Q1
0001127602-24-017837,2024-06-04,01-JUN-2024,4,VTOL,Bristow Group Inc.,Officer,"COO, Offshore Energy Services",TX,HOUSTON,77042,35.91,76376.0,D,4.0,Common Stock,765.0,D,29.74125,-95.56015,2024Q2
0001562180-25-000925,2025-02-04,31-JAN-2025,4,ALLY,Ally Financial Inc.,Officer,Chief Risk Officer,MI,DETROIT,48226,39.06,88056.0,D,4.0,Common Stock,1156.0,D,42.33182,-83.05034,2025Q1
0001213900-24-108551,2024-12-12,12-DEC-2024,4,JSPR,"Jasper Therapeutics, Inc.",Officer,Chief Operating Officer,CA,REDWOOD CITY,94065,7.1,25909.0,D,4.0,Voting Common Stock,900.0,A,37.53504,-122.24683,2024Q4
0001562180-24-001102,2024-02-06,05-FEB-2024,4,ALLY,Ally Financial Inc.,Officer,Chief Risk Officer,MI,DETROIT,48226,37.62,136312.0,D,4.0,Common Stock,1868.0,D,42.33182,-83.05034,2024Q1
0001127602-24-003730,2024-02-07,06-FEB-2024,4,CBSH,COMMERCE BANCSHARES INC /MO/,Officer,Senior Vice President,MO,KANSAS CITY,64106,50.62,30949.0,D,4.0,Common Stock,1392.0,D,39.10526,-94.57013,2024Q1
0001499832-24-000150,2024-12-30,26-DEC-2024,4,TSQ,"Townsquare Media, Inc.",Officer,"EVP, Inv Rel and Corp Comm",NY,PURCHASE,10577,9.6,221143.0,D,4.0,Class A Common Stock,5000.0,D,41.03755,-73.71349,2024Q4
0001062993-24-020091,2024-12-04,02-DEC-2024,4,JACK,JACK IN THE BOX INC,Officer,"EVP, Chief Mktng&Digtl Officer",CA,SAN DIEGO,92123,48.93,27744.0,D,4.0,COMMON STOCK,707.0,D,32.80958,-117.13419,2024Q4
0001059556-24-000057,2024-03-05,01-MAR-2024,4,MCO,MOODYS CORP /DE/,Officer,"SVP, Corp Contr &  Interim CFO",NY,NEW YORK,10007,380.58,1439.73,D,4.0,Common Stock,284.94,D,40.71387,-74.00792,2024Q1
0001382821-24-000078,2024-05-22,20-MAY-2024,4,RDFN,Redfin Corp,Officer,Chief Growth Officer,WA,SEATTLE,98101,6.96,57274.0,D,4.0,Common Stock,3632.0,D,47.61119,-122.33454,2024Q2
0000950170-24-012313,2024-02-07,05-FEB-2024,4,ALIT,"Alight, Inc. / Delaware",Officer,See remarks,IL,LINCOLNSHIRE,60069,9.06,2989858.0,D,4.0,Class A Common Stock,9576.0,D,42.19588,-87.92439,2024Q1
0001195734-24-000041,2024-04-03,01-APR-2024,4,PBPB,POTBELLY CORP,Officer,"SVP, Chief Information Officer",IL,CHICAGO,60606,11.62,129487.0,D,4.0,Common Stock,1861.0,D,41.88178,-87.63724,2024Q2
